State,District,Latitude,Longitude,District code,Population,Households_with_Internet,Hindus,Muslims,Christians,Others_Religions,Households_with_Computer,Housholds_with_Electric_Lighting,Urban_Households,Rural_Households,Higher_Education,Graduate_Education,Illiterate_Education,Literate_Education,SC,ST,sex ratio,literacy_rate,Illiterate_rate
Andhra Pradesh,Adilabad,19.284513950073435,78.81321233480176,532,2741239,5512,2399901,275970,15422,322,45202,566108,220248,597466,143143,100226,1030640,1346992,488596,495794,100.0,54.0,38.0
Andhra Pradesh,Anantapur,14.312065561843148,77.4601584478577,553,4081148,8606,3599372,443456,20463,309,48299,897970,341431,902997,162175,144915,1369069,2426929,583135,154127,98.0,57.0,34.0
Andhra Pradesh,Chittoor,13.33109263067696,78.92763898886037,554,4174064,13763,3737588,397870,24129,358,67087,944555,395900,907970,265199,246409,1170993,3062955,785760,159165,100.0,64.0,28.0
Andhra Pradesh,East Godavari,16.782718320784902,82.2432074720511,545,5154296,22411,4983330,77777,77825,403,93784,1297273,406362,1199479,271809,263023,1524603,3518619,945269,213195,101.0,64.0,30.0
Andhra Pradesh,Guntur,15.884925767634847,80.58657614107885,548,4887813,19383,4217597,559770,89763,332,80434,1186028,513113,1069877,246580,221924,1474349,3209266,957407,247089,100.0,61.0,30.0
Andhra Pradesh,Hyderabad,17.38971555555556,78.46668888888888,536,3943323,149034,2046051,1713405,87522,1929,274653,869721,1066289,0,517425,558090,556902,3445721,247927,48937,95.0,73.0,14.0
Andhra Pradesh,Karimnagar,18.515483193277312,79.43765428571413,534,3776269,8831,3491139,244723,24979,115,46584,926768,288044,877236,293493,256633,1280393,2325560,709757,106745,101.0,58.0,34.0
Andhra Pradesh,Khammam,17.683921325051784,80.67008643892335,541,2797370,8628,2595321,158887,33463,539,42171,668519,201363,669262,154774,160804,875272,1551232,462896,765565,101.0,58.0,31.0
Andhra Pradesh,Krishna,16.143872753151673,81.14805061000413,547,4517398,30438,4023678,307043,145598,906,101450,1163932,567042,909292,312753,328454,1352499,3169428,871063,132464,99.0,67.0,30.0
Andhra Pradesh,Kurnool,15.43759715142429,77.90086836581717,552,4053463,10081,3328380,670737,33165,434,56478,816721,306982,783853,152453,115504,1517933,2220285,737945,82831,99.0,52.0,37.0
Andhra Pradesh,Mahbubnagar,16.639546224256293,77.98933089244859,538,4053028,6153,3673456,334172,21345,267,60812,757821,161052,848963,169083,98227,1604319,2049104,708954,364269,98.0,48.0,40.0
Andhra Pradesh,Medak,17.889304978038055,78.13778901903379,535,3033288,8635,2637313,342449,34301,217,47170,604719,195479,593653,201928,127493,1199818,2029580,537947,168985,99.0,54.0,40.0
Andhra Pradesh,Nalgonda,17.113250515463907,79.16984453608244,539,3488809,7715,3249231,188646,35025,132,53777,789225,197433,833504,238695,196134,1294811,2188695,637385,394279,98.0,57.0,37.0
Andhra Pradesh,Nizamabad,18.429485849056604,78.07523490566035,533,2551335,5261,2123426,391596,19653,146,35036,545913,155133,565165,223365,141850,1041862,1804547,371074,192941,104.0,54.0,41.0
Andhra Pradesh,Prakasam,15.489039001601704,80.11665790176184,549,3397448,6151,3150195,220654,18775,206,43611,763746,214089,873486,142026,133627,1218310,1900943,787861,151145,98.0,56.0,36.0
Andhra Pradesh,Srikakulam,18.570900998697432,84.25874814010675,542,2703114,3988,2666950,9025,18879,106,32280,615432,149684,752752,146721,121213,1009992,1499877,255664,166118,101.0,55.0,37.0
Andhra Pradesh,Vizianagaram,18.28329696032972,83.45982854198873,543,2344474,4453,2299129,16423,17853,183,24128,527736,157056,592458,115144,103591,1031683,1240323,247728,235556,102.0,53.0,44.0
Andhra Pradesh,Warangal,18.01752608695651,79.87422028985509,540,3512576,12952,3273755,197333,31377,126,59006,828077,288249,758738,279234,248942,1191252,2212184,616102,530656,100.0,59.0,34.0
Andhra Pradesh,West Godavari,16.63297943925236,81.45912990654196,546,3936966,12050,3733191,86142,109120,211,55613,1017568,248373,1007255,215863,207586,1028767,2771842,811698,109072,100.0,67.0,26.0
Arunachal Pradesh,Changlang,27.36048479338845,96.37552644628106,253,148226,170,47683,2134,35969,11738,1486,14593,6498,33422,5641,3633,57290,80456,0,53878,93.0,49.0,39.0
Arunachal Pradesh,East Kameng,27.371194055944056,93.04741486013997,247,78690,57,12333,652,37136,27868,885,5318,5215,14503,4510,2330,31763,44247,0,72400,103.0,49.0,40.0
Arunachal Pradesh,East Siang,28.15382352941176,95.06499226006191,251,99214,450,27854,2289,18254,49393,1582,14231,9524,19497,9498,6540,21543,65119,0,69979,98.0,63.0,22.0
Arunachal Pradesh,Kurung Kumey,28.04853351800553,93.24531994459834,256,92076,95,4859,471,51189,34158,969,3911,1092,18603,4353,2031,42621,53659,0,90764,103.0,40.0,46.0
Arunachal Pradesh,Lohit,27.946785273972623,96.59670770547945,259,145726,312,99020,3846,10684,7277,1471,17157,11372,33599,7612,5180,52421,91574,0,47410,91.0,57.0,36.0
Arunachal Pradesh,Lower Dibang Valley,28.32651730103806,95.76567335640142,258,54080,207,28915,2247,9213,10393,742,5932,3950,12000,3570,2795,14406,33141,0,25974,93.0,59.0,27.0
Arunachal Pradesh,Lower Subansiri,27.70849297297297,93.96226108108112,255,83030,381,9551,1482,34402,37085,1598,12493,5365,18112,7674,5230,17273,54034,0,72911,98.0,65.0,21.0
Arunachal Pradesh,Papum Pare,27.273529716981127,93.54468183962264,248,176573,2477,57027,6148,84397,22586,7418,30539,30180,20308,17342,13840,30360,110815,0,117216,98.0,69.0,17.0
Arunachal Pradesh,Tawang,27.680683962264148,91.82504245283016,245,49977,96,11842,787,776,349,494,8635,2452,10730,1989,1379,19203,19838,0,34811,71.0,52.0,38.0
Arunachal Pradesh,Tirap,26.94406229508198,95.41470327868862,254,111975,98,20682,1103,83361,5325,888,16026,6500,18420,4305,2134,50628,57106,0,98372,94.0,43.0,45.0
Arunachal Pradesh,Upper Siang,28.8309244897959,95.00155765306124,252,35320,97,5261,411,5643,20967,392,6198,2182,8569,2211,1349,11209,20992,0,28468,89.0,52.0,32.0
Arunachal Pradesh,Upper Subansiri,28.277196566523585,93.8991435622318,249,83448,139,13474,521,8779,59449,750,5373,4672,14542,8017,4276,28364,64790,0,78323,100.0,54.0,34.0
Arunachal Pradesh,West Kameng,27.46486582278483,92.65015750452083,246,83947,202,31265,1970,8466,5556,887,14188,6306,17889,3987,2693,25606,40193,0,46380,82.0,58.0,31.0
Arunachal Pradesh,West Siang,28.106296920289843,94.53510344202908,250,112274,303,15881,2218,29969,60005,1300,14204,8503,22272,8418,6030,27956,74220,0,92783,93.0,58.0,25.0
Assam,Barpeta,26.427872264631056,90.97912010178116,303,1693622,2078,492966,1198036,1020,14,25286,84804,52192,447189,87377,46947,664161,1083591,95320,27344,95.0,53.0,39.0
Assam,Bongaigaon,26.45012521994133,90.6734296187684,319,738804,2523,359145,371033,5924,9,12959,49866,38470,181923,35491,20221,260721,479431,82784,18835,97.0,59.0,35.0
Assam,Cachar,24.815570668693017,92.86849650455927,316,1736617,5316,1038985,654816,37635,98,37541,140205,88933,346227,79766,45341,357907,1378531,264897,17569,96.0,68.0,21.0
Assam,Darrang,26.58463215962442,92.04141338028155,325,928500,1166,327322,597392,1688,19,12084,45444,20189,268517,47398,22267,375556,575240,40260,8419,95.0,52.0,40.0
Assam,Dhemaji,27.586533438485816,94.71336908517353,308,686133,1192,655052,13475,8711,6315,10410,28195,16504,211758,55399,28006,194984,521393,44225,325560,95.0,62.0,28.0
Assam,Dibrugarh,27.30612284482757,95.0998282327587,310,1326335,8817,1198401,64526,52968,46,34479,136685,77163,299852,89500,59380,340744,983760,58876,102871,96.0,67.0,26.0
Assam,Goalpara,26.017277777777807,90.59869891598912,302,1008183,1364,347878,579929,77862,103,13524,78641,39504,228610,39885,18294,375071,657440,45094,231570,96.0,56.0,37.0
Assam,Golaghat,26.377219709794485,93.82583397823468,313,1066888,3073,917426,90312,50582,1347,17636,82345,34190,292893,66197,36887,258897,820800,62298,111765,96.0,68.0,24.0
Assam,Hailakandi,24.457496089385486,92.59154664804475,318,659296,1211,251194,397653,8480,636,10615,44143,16202,159215,28504,11608,173306,500042,70659,691,95.0,62.0,26.0
Assam,Jorhat,26.76244824016563,94.30197722567289,312,1092256,5651,1008219,54684,21051,578,26357,122063,80824,286330,97025,62608,209170,892694,88665,139971,96.0,73.0,19.0
Assam,Kamrup,26.170939452054807,91.58863273972592,321,1517542,3109,877495,601784,33297,55,23468,122191,43849,390596,118849,55011,392678,1142942,107827,182038,95.0,66.0,26.0
Assam,Karbi Anglong,26.08966454598031,93.11536570271832,314,956313,1923,766000,20290,157789,3568,11340,53918,37185,215691,40602,18225,310093,676227,44961,538738,95.0,58.0,32.0
Assam,Karimganj,24.69660712250711,92.3679498575498,317,1228686,1933,521962,692489,11990,110,24699,70951,32695,261945,39637,21408,303785,935508,157890,1940,96.0,65.0,25.0
Assam,Kokrajhar,26.497246635730868,90.13997470997688,300,887142,1218,529068,252271,101091,123,14063,41373,17115,204896,39571,17287,340601,576006,29570,278665,96.0,55.0,38.0
Assam,Lakhimpur,27.14128805970149,94.0775949253732,307,1042137,1948,797130,193476,46217,2410,15011,60296,34694,293239,82885,44212,275677,795681,81840,249426,97.0,66.0,26.0
Assam,Nagaon,26.26462170626351,92.9306191144708,305,2823768,5121,1225246,1563203,26844,61,45956,195631,124186,674999,115864,66994,873197,1999919,266350,115153,96.0,61.0,31.0
Assam,Nalbari,26.46323767605632,91.40598521126763,323,771639,1631,491582,277488,429,9,12360,68313,28238,210706,71734,39368,188960,606629,60216,23364,95.0,69.0,24.0
Assam,Sonitpur,26.73514926829268,92.85197804878044,306,1924110,4358,1422824,350536,138166,221,31254,133368,64528,483325,90385,49901,627141,1298039,109130,232207,96.0,58.0,33.0
Assam,Tinsukia,27.53549291139241,95.69055949367085,309,1327929,5135,1181347,48373,76877,395,27948,161718,90910,290704,61040,38152,417081,910252,37688,82066,95.0,60.0,31.0
Bihar,Araria,26.211528119180603,87.30766554934816,209,2811569,2561,1593525,1207442,4116,63,29796,43290,44213,659061,68177,39627,1653766,1485840,382654,38848,92.0,43.0,59.0
Bihar,Aurangabad,24.774291867469877,84.45986024096379,235,2540073,2362,2291133,237353,2218,19,31168,44456,49006,428291,136783,91371,784131,1833998,612064,1033,93.0,58.0,31.0
Bihar,Aurangabad,24.774291867469877,84.45986024096379,515,3701282,23258,2545438,786677,15991,1005,69937,589477,427343,551789,310762,253253,819734,2611982,539368,143366,92.0,68.0,22.0
Bihar,Banka,24.832355642023337,86.8664916342413,225,2034763,1704,1772655,250925,6138,1035,22300,62359,18492,425604,63103,35767,879831,1214645,247858,90432,91.0,47.0,43.0
Bihar,Begusarai,25.54302613168723,86.12560144032932,222,2970541,4644,2554330,407348,2209,57,43127,120373,139248,594377,144783,101836,1242551,1822334,432270,1597,89.0,52.0,42.0
Bihar,Bhagalpur,25.277192885375477,87.04213814229242,224,3037766,6764,2487866,537098,3556,32,46929,174534,130634,522527,154643,118843,1139715,1976417,318569,67180,88.0,52.0,38.0
Bihar,Bhojpur,25.50666439393939,84.49407803030304,231,2728407,3661,2518216,197819,2165,48,34658,62153,77368,434559,163303,131137,1005140,2172525,425402,13977,91.0,59.0,37.0
Bihar,Buxar,25.48593018867924,84.08808081760995,232,1706352,1784,1591454,105423,2125,57,19324,46760,35405,299252,89306,64117,457814,1344677,251737,26824,92.0,58.0,27.0
Bihar,Darbhanga,26.146187719298258,85.97387352472099,215,3937385,6280,3042729,881476,3534,101,53205,127442,95539,907174,152540,129597,2203198,2028545,615688,2772,91.0,46.0,56.0
Bihar,Gaya,24.7266541547278,84.94291217765044,236,4391418,6856,3876395,488121,3943,108,57011,112617,111282,696289,191824,131163,1953368,2784730,1334351,3098,94.0,52.0,44.0
Bihar,Gopalganj,26.44874364161851,84.34636127167629,217,2562012,3707,2119262,436057,2463,28,33596,69375,38133,515925,123249,79109,977719,1736879,320064,60807,102.0,54.0,38.0
Bihar,Jamui,24.78418380462726,86.26316298200514,238,1760405,1839,1525746,217621,8443,3438,22414,32633,30851,325909,56137,29633,765297,1085477,302649,78793,92.0,49.0,43.0
Bihar,Jehanabad,25.155679045643165,84.9208124481328,239,1125313,1106,1045117,75742,691,58,11302,27641,28132,186660,68748,45519,495877,725997,222974,1285,92.0,55.0,44.0
Bihar,Katihar,25.56565356037151,87.70466083591326,212,3071029,2941,1684589,1365645,8659,2141,27263,60900,69838,668232,88498,57114,1705551,1445438,263100,179971,92.0,42.0,56.0
Bihar,Khagaria,25.53558891454964,86.56593256351037,223,1666886,1580,1486989,175588,1253,115,21654,40641,21007,373696,65931,38697,903323,925251,247161,675,89.0,46.0,54.0
Bihar,Kishanganj,26.324336758321294,87.95045007235886,210,1690400,1093,531236,1149095,5783,28,14073,58718,43357,401793,25989,15386,945397,769119,113118,64224,95.0,44.0,56.0
Bihar,Lakhisarai,25.183449321266963,86.12825701357468,227,1000912,1186,956396,40886,487,52,8862,44491,31763,175882,48001,27261,450967,597955,153209,8333,90.0,51.0,45.0
Bihar,Madhepura,25.77341929460581,86.8978443983403,213,2001762,1397,1753829,241760,1342,81,23309,23236,24000,486278,79891,44955,1202278,875510,346275,12532,91.0,42.0,60.0
Bihar,Madhubani,26.41380538172716,86.16328360450552,207,4487379,5319,3652168,818912,3262,169,65548,113281,41234,1047552,170563,137780,2003079,2698989,587158,3990,93.0,48.0,45.0
Bihar,Munger,25.198537962962963,86.54173672839504,226,1367765,2653,1252319,110416,1815,61,17946,90461,85782,222281,101907,64469,498676,849734,183846,21404,88.0,59.0,36.0
Bihar,Muzaffarpur,26.18664417177915,85.32745092024543,216,4801062,10290,4032773,745546,5149,98,73012,180651,120700,998694,194920,138916,1924438,2903794,751975,5979,90.0,52.0,40.0
Bihar,Nalanda,25.229345508982053,85.48053113772461,229,2877653,4156,2669775,198033,1978,64,43848,101378,102522,514141,177358,133032,1324385,1985188,607672,1442,92.0,53.0,46.0
Bihar,Nawada,24.825708836206903,85.61594568965519,237,2219146,1841,1964620,244394,1299,80,28411,31162,45323,379551,95943,64585,1091439,1489517,565112,2045,94.0,49.0,49.0
Bihar,Pashchim Champaran,27.16064352201258,84.30265911949685,203,3935042,3495,3047427,865090,8469,1895,41143,57546,96620,839514,98732,70669,1710878,2182688,553944,250046,91.0,45.0,43.0
Bihar,Patna,25.40297114503818,85.3198433587787,230,5838465,40692,5356075,439952,12551,203,132582,546859,552103,657991,463361,452340,2590473,4920726,920918,9069,90.0,59.0,44.0
Bihar,Purba Champaran,26.68129336734693,85.00382155612242,204,5099371,7719,4086453,990349,4865,104,70258,74979,101565,1142260,121594,68781,2142757,3150588,649726,12461,90.0,45.0,42.0
Bihar,Purnia,25.81714801901739,87.40447606973065,211,3264619,4170,1989420,1255641,7989,650,33664,86058,85749,712847,83226,59996,1798786,1486857,390991,139490,92.0,41.0,55.0
Bihar,Rohtas,24.99170460829495,83.9350762672811,234,2959918,4594,2645415,300487,2889,537,36279,114893,95678,512383,194928,161555,876443,2188753,549546,31650,92.0,61.0,30.0
Bihar,Saharsa,25.821270696721303,86.54670819672135,214,1900661,1668,1629254,266620,1292,8,19415,41342,38046,432651,64560,47051,1151349,855188,317249,6009,91.0,42.0,61.0
Bihar,Samastipur,25.793205563909765,85.94833323308269,221,4261566,5379,3800598,452370,2126,112,50918,88021,43486,1012979,186153,129933,1996651,2549708,803128,1884,91.0,50.0,47.0
Bihar,Saran,25.89656077844312,84.82266287425155,219,3951862,4509,3534772,406449,2330,107,37442,94787,76299,701323,213251,148065,1313700,2653504,474066,36786,95.0,55.0,33.0
Bihar,Sheikhpura,25.12472436548223,85.77839390862943,228,636342,631,596102,37653,313,31,8873,20065,24345,108293,33856,19676,305609,409518,131115,617,93.0,52.0,48.0
Bihar,Sheohar,26.458380748663107,85.29539411764709,205,656246,478,552492,99342,522,44,6698,10004,7516,158484,16031,10091,348078,308989,96655,318,89.0,43.0,53.0
Bihar,Sitamarhi,26.56570069686413,85.61172491289203,206,3423574,3460,2672311,740101,2897,20,42461,66263,49670,807294,92783,70549,1852765,1635891,405714,2989,90.0,42.0,54.0
Bihar,Siwan,26.1736372013652,84.33766552901022,218,3330464,3834,2712635,608282,2618,86,37833,52935,41858,632514,186817,119164,1207119,2421121,386685,87000,99.0,58.0,36.0
Bihar,Supaul,26.28157893772896,86.78496465201461,208,2229076,1845,1809936,409251,3758,42,25078,51028,27815,572287,69665,45726,1220268,1116063,354249,10168,93.0,46.0,55.0
Bihar,Vaishali,25.8134703180212,85.39247597173153,220,3495021,4810,3152346,333980,2203,71,39564,70001,51494,699317,178320,124448,1479152,2271286,738031,2274,89.0,55.0,42.0
Chandigarh,Chandigarh,30.7426,76.75872465753424,55,1055450,44283,852574,51447,8720,246,78113,231204,289456,8911,98786,174528,184265,731491,199086,0,82.0,76.0,17.0
Chhattisgarh,Bastar,19.393866751269048,81.52895126903546,414,1413199,1782,1277975,12413,27951,86925,9042,157646,54894,316425,57413,32895,729550,656234,37963,931780,102.0,46.0,52.0
Chhattisgarh,Bilaspur,22.356942982456143,81.99770350877188,30,381956,1574,371973,6984,236,7,6281,79146,11987,152458,45695,25474,65864,287961,98989,10693,98.0,75.0,17.0
Chhattisgarh,Bilaspur,22.356942982456143,81.99770350877188,406,2663629,8566,2540763,57973,20745,29122,30892,519704,188174,549632,152838,134637,943112,1624001,552992,498469,97.0,60.0,35.0
Chhattisgarh,Dhamtari,20.554912627291245,81.7569195519348,412,799781,1016,777188,10425,2644,3685,4804,148926,41792,168689,58875,31319,214637,572304,58581,207633,101.0,68.0,27.0
Chhattisgarh,Durg,21.194463849287164,81.33181639511197,409,3343872,16141,3129745,83499,24304,42569,51289,614109,349741,533448,286244,202424,823501,2363288,458040,397416,99.0,69.0,25.0
Chhattisgarh,Jashpur,22.77286167664669,83.8703962075848,402,851669,567,629509,15336,189588,14835,5755,76783,20722,205670,50562,26161,328438,529825,48844,530378,101.0,58.0,39.0
Chhattisgarh,Korba,22.491712499999995,82.57604326923074,404,1206640,4544,1133176,30195,21059,15649,18004,202380,126055,206598,83166,61215,410186,780221,124679,493559,97.0,62.0,34.0
Chhattisgarh,Koriya,23.50412776859501,82.12515636363635,400,658917,1667,604259,25878,9398,15474,7609,80023,59763,121852,38677,26802,179639,457761,54776,304280,97.0,60.0,27.0
Chhattisgarh,Mahasamund,21.223727037773354,82.65925427435384,411,1032754,961,1008061,12570,5284,1417,5614,212487,35774,274793,57949,33357,384764,702532,139581,279896,102.0,62.0,37.0
Chhattisgarh,Raigarh,22.008265068493166,83.27797698630134,403,1493984,3342,1422986,17332,47653,1782,13857,297308,66638,354278,93340,66358,460166,1017307,224942,505609,99.0,64.0,31.0
Chhattisgarh,Raigarh,22.008265068493166,83.27797698630134,520,2634200,38570,2239370,227465,17452,1159,96301,547206,377160,581868,221410,204507,482420,1861740,134952,305125,96.0,74.0,18.0
Chhattisgarh,Raipur,20.88603153846152,82.20032759615388,410,4063872,20261,3881485,103038,23181,10680,59523,728556,395001,673499,267265,227382,1247434,2674728,724250,476446,98.0,65.0,31.0
Chhattisgarh,Surguja,23.32719278728607,83.23582493887531,401,2359886,2737,2126195,81442,97432,48295,18983,253131,65167,525596,105992,64607,991866,1299718,115652,1300628,98.0,50.0,42.0
Daman and Diu,Daman,20.431616666666677,72.8392366071429,495,191173,1316,171537,16087,2618,79,4543,49249,61073,10006,14170,9128,20641,119741,4262,15240,53.0,79.0,11.0
Daman and Diu,Junagadh,20.72568199498111,70.83985639899612,479,2743082,6628,2397056,334858,2586,77,26991,498326,287506,489237,137505,139957,669022,1886269,265793,55571,95.0,67.0,24.0
Goa,North Goa,15.548723418714054,73.80667997909038,585,818008,23440,622213,57941,134169,166,56266,173951,209230,115859,87513,86781,99538,636063,17606,56606,96.0,81.0,12.0
Goa,South Goa,15.195278658183785,73.941792596877,586,640537,17624,341664,63623,231961,92,44299,138810,162873,88620,64786,57460,88577,463596,7843,92669,99.0,78.0,14.0
Gujarat,Ahmadabad,22.605425564971743,72.23898135593227,474,7214225,126341,6042416,883238,50754,2055,273651,1456046,1845383,353169,549188,839295,1129562,5805299,759483,89138,90.0,75.0,16.0
Gujarat,Amreli,21.04832649310872,71.43457637825426,480,1514190,2538,1410463,99105,919,40,12765,273331,116899,313714,66785,50999,380595,1039194,132915,7322,96.0,66.0,25.0
Gujarat,Anand,22.282718206229863,72.57782051557454,482,2092745,9902,1798794,250919,29789,142,32523,378310,208909,413078,127459,110351,360506,1588947,104465,24824,92.0,74.0,17.0
Gujarat,Banas Kantha,24.258538965517253,71.93205252873561,469,3120506,3424,2890305,213505,1686,83,23149,396873,137424,666773,105372,66950,1207376,1799274,327460,284155,94.0,55.0,39.0
Gujarat,Bharuch,21.75787276237761,72.67326346710801,488,1551019,10257,1188204,343511,9494,342,29531,309091,181319,300677,83895,74380,273829,1056350,62235,488194,93.0,72.0,18.0
Gujarat,Bhavnagar,21.70219390341736,72.16272632761141,481,2880365,7297,2632574,212863,3457,127,28925,500757,356826,387251,96241,93391,508664,2103528,157034,9110,93.0,66.0,18.0
Gujarat,Gandhinagar,23.193679790026252,72.67221679790026,473,1391753,12107,1319586,57273,3237,82,33662,262539,195634,237624,95730,108400,246993,1049555,108608,18204,92.0,74.0,18.0
Gujarat,Jamnagar,22.410600414263328,69.62062005768233,477,2160119,11573,1810443,320805,4392,136,30384,386538,299167,347158,74029,87523,502873,1320610,173895,24187,94.0,65.0,23.0
Gujarat,Junagadh,20.929523011609785,70.54733890140345,479,2743082,6628,2397056,334858,2586,77,26991,498326,287506,489237,137505,139957,669022,1886269,265793,55571,95.0,67.0,24.0
Gujarat,Kachchh,23.48057203301311,68.82192301497916,468,2092371,9631,1608921,442355,6192,98,31961,403294,250982,488293,61366,60386,581952,1150801,258859,24228,91.0,60.0,28.0
Gujarat,Kheda,22.88765312500002,73.018803515625,483,2299885,5710,2000884,264482,26629,82,24502,372226,160547,461479,148530,84223,482078,1749234,115631,40336,94.0,72.0,21.0
Gujarat,Mahesana,23.529355452865065,72.45545194085031,471,2035064,7759,1885732,136431,1954,88,33731,385609,183738,476005,139208,130723,434497,1474304,162288,9392,93.0,74.0,21.0
Gujarat,Narmada,21.70666386292833,73.68403208722742,487,590297,576,559848,22600,4413,2078,4081,101940,22248,138121,28396,14748,192780,380328,8733,481392,96.0,63.0,33.0
Gujarat,Navsari,20.866973318871995,72.86184869848157,490,1329672,6726,1225087,78669,5733,2823,24397,267679,141417,267739,112460,85041,261956,967020,35464,639659,96.0,75.0,20.0
Gujarat,Panch Mahals,22.80435606837605,73.61984598290586,484,2390776,3456,2220974,158513,2863,131,19753,398937,104238,463363,139773,71810,781582,1575872,100446,721604,95.0,60.0,33.0
Gujarat,Patan,23.80634198473284,71.75162977099237,470,1343734,2231,1194745,142797,916,66,12870,223424,102655,301483,57494,46355,452891,856932,123408,13303,94.0,62.0,34.0
Gujarat,Porbandar,21.55092351651571,69.71896987722886,478,585449,1653,549749,33565,500,38,5639,117040,87557,96015,25119,22458,137119,389163,51830,13039,95.0,67.0,23.0
Gujarat,Rajkot,22.40603377715488,70.83679439383323,476,3804558,21785,3397406,361388,5478,269,67370,747352,721532,459474,204306,266295,738660,2740751,290169,24017,93.0,72.0,19.0
Gujarat,Sabar Kantha,23.71803594548552,73.13638790459964,472,2428589,5262,2260560,148563,6375,52,25425,438606,121509,544024,198963,110817,665058,1691327,187685,542156,95.0,65.0,27.0
Gujarat,Surat,21.25761372772093,72.93488716344339,492,6081322,55694,5260193,660772,21052,3920,149331,1252452,1529998,369840,433651,379505,942150,4495898,158115,856952,79.0,75.0,15.0
Gujarat,Surendranagar,22.82672007299272,71.48358740875906,475,1756268,2975,1620282,109681,1419,128,15309,302068,159810,340788,61164,58389,493427,1189959,179461,21453,93.0,62.0,28.0
Gujarat,The Dangs,20.801633877551023,73.6883518367347,489,228291,137,203545,3593,20029,560,1393,29794,7516,52102,7560,3490,91160,149466,992,216073,101.0,62.0,40.0
Gujarat,Vadodara,22.26133739279589,73.49433010291594,486,4165626,53606,3713941,384579,23813,1124,117818,798277,692971,547454,268451,314960,910219,2868332,221629,1149901,93.0,69.0,22.0
Gujarat,Valsad,20.44238231644259,72.9148584798345,491,1705678,11020,1571147,94034,19661,1417,31285,329218,235981,262410,123281,90912,405928,1093866,38237,902794,92.0,69.0,24.0
Haryana,Ambala,30.3503672316384,76.94970310734456,70,1128350,12899,955096,22143,3705,110,32767,199681,139891,175365,97980,91472,222031,793235,296246,0,88.0,72.0,20.0
Haryana,Bhiwani,28.728868064516128,76.02110225806452,81,1634445,5292,1611031,15515,873,26,25236,266244,99235,357047,148995,104875,459364,1093788,341162,0,89.0,65.0,28.0
Haryana,Faridabad,28.14873109756098,77.32718536585368,88,1809733,43437,1588407,161680,9743,249,82673,333171,382981,87700,178846,259933,346567,1306146,223799,0,87.0,70.0,19.0
Haryana,Fatehabad,29.57298318584072,75.54608716814157,78,942011,3210,779243,8360,996,530,13142,153301,55360,203020,61476,37741,344534,542399,284357,0,90.0,59.0,37.0
Haryana,Gurgaon,28.043894789579163,77.01935130260523,86,1514432,67087,1408801,70842,9725,254,102343,305751,381988,141703,150120,233402,263720,1123831,197937,0,85.0,73.0,17.0
Haryana,Hisar,29.23628731117825,75.84324682779452,80,1743931,10132,1701061,21650,1945,33,33400,285004,154113,302013,144626,105346,505251,1093767,408785,0,87.0,64.0,29.0
Haryana,Jhajjar,28.59651868131869,76.61137142857145,83,958405,5034,945693,8247,734,22,19241,168558,78328,211816,97457,58826,201028,627288,170448,0,86.0,71.0,21.0
Haryana,Jind,29.45149821958457,76.29598575667653,77,1334152,5263,1276669,23016,889,56,23750,222462,89665,278335,107994,64599,419624,815843,282351,0,87.0,62.0,31.0
Haryana,Kaithal,29.96068539094649,76.37698930041155,73,1074304,3724,974520,8232,1769,70,15301,187349,75696,231091,82297,51043,369869,662470,247513,0,88.0,60.0,34.0
Haryana,Karnal,29.703200647249204,76.87488025889972,74,1505324,11163,1341002,31650,2049,49,29253,267223,135920,292682,124790,101387,429220,1004186,339604,0,89.0,65.0,29.0
Haryana,Kurukshetra,30.05652659846548,76.78774680306903,72,964655,7356,805175,15970,1943,106,21951,171908,88268,203553,81964,71007,266638,642789,215128,0,89.0,67.0,28.0
Haryana,Mahendragarh,28.1352161458333,76.14018072916659,84,922088,2624,913251,5660,301,15,13908,135455,44216,223726,94245,60296,245602,654072,156314,0,89.0,68.0,27.0
Haryana,Panchkula,30.700897142857134,76.97173238095236,69,561293,18615,490702,23451,2583,90,32174,103455,93656,70895,48306,83256,119222,388559,101830,0,87.0,72.0,21.0
Haryana,Panipat,29.34352134146342,76.92895914634147,75,1205437,10024,1083936,86622,2261,99,26719,209965,153804,173502,91756,75774,296212,752884,206213,0,86.0,65.0,25.0
Haryana,Rewari,28.19164714828897,76.55956007604564,85,900332,5121,889133,5713,701,12,18092,152651,69305,199449,95807,65143,206827,635173,182606,0,90.0,71.0,23.0
Haryana,Rohtak,28.892517647058817,76.53123235294117,82,1061204,8482,1043887,8185,732,24,27225,193120,131739,175203,109596,100346,248795,808357,216889,0,87.0,70.0,23.0
Haryana,Sirsa,29.63583446327684,74.90970480225988,79,1295189,6287,940255,9524,2186,624,22706,215527,93316,245476,83373,61620,412353,792628,387381,0,90.0,60.0,32.0
Himachal Pradesh,Bilaspur,31.3780422907489,76.65316079295157,30,381956,1574,371973,6984,236,7,6281,79146,11987,152458,45695,25474,65864,287961,98989,10693,98.0,75.0,17.0
Himachal Pradesh,Bilaspur,31.3780422907489,76.65316079295157,406,2663629,8566,2540763,57973,20745,29122,30892,519704,188174,549632,152838,134637,943112,1624001,552992,498469,97.0,60.0,35.0
Himachal Pradesh,Chamba,32.66741814595661,76.39354063116366,23,519080,1615,479782,32455,1559,14,5117,96082,13836,186395,40440,15506,154575,344427,111690,135500,99.0,62.0,30.0
Himachal Pradesh,Hamirpur,31.67668481012659,76.49767088607594,28,454768,2521,449412,3711,243,9,7525,104120,15232,196116,64363,35620,72551,376978,109256,3044,110.0,79.0,16.0
Himachal Pradesh,Hamirpur,31.67668481012659,76.49767088607594,168,1104285,1196,1010014,91269,814,273,11037,55929,55300,256081,59914,59612,364848,835920,241198,474,86.0,59.0,33.0
Himachal Pradesh,Kangra,32.14093603238864,76.41205910931173,24,1510075,8053,1461140,19797,3023,208,22753,330081,39007,588321,192936,91236,271892,1176288,319385,84564,101.0,76.0,18.0
Himachal Pradesh,Kinnaur,31.60667184065933,78.51613736263741,34,84121,354,64732,448,485,45,2563,17865,0,44514,7871,5118,16944,59428,14750,48746,82.0,72.0,20.0
Himachal Pradesh,Kullu,31.90911922077925,77.40922649350647,26,437903,2623,415669,2974,1568,83,7010,91322,20709,167995,39081,23168,103136,310349,122659,16822,94.0,70.0,24.0
Himachal Pradesh,Mandi,31.635805940594054,76.96556930693067,27,999777,5333,981412,9460,876,86,16401,214491,31696,431129,128549,54139,218570,763468,293739,12787,101.0,72.0,22.0
Himachal Pradesh,Shimla,31.155725451807253,77.62573042168668,33,814010,9177,791449,11810,2025,197,24127,172754,95896,279269,95341,80414,137576,623801,215777,8755,92.0,75.0,17.0
Himachal Pradesh,Sirmaur,30.682764453961443,77.43184689507493,32,529855,2220,476830,33215,577,86,8593,91509,21054,171102,38282,23352,140486,368841,160745,11262,92.0,68.0,27.0
Himachal Pradesh,Solan,31.03864311926604,76.94442140672783,31,580320,5250,548579,14678,1452,110,14478,119866,51509,192787,59363,36803,104084,423408,164536,25645,88.0,74.0,18.0
Himachal Pradesh,Una,31.58330388349513,76.18353932038836,29,521173,2412,480138,14275,390,10,8238,105929,20126,185091,60626,32120,87735,424468,115491,8601,98.0,77.0,17.0
Jammu and Kashmir,Doda,33.359614675767915,76.07163720136518,16,409936,596,187621,220614,472,42,3077,61831,11350,122267,31416,12647,163565,248131,53408,39216,92.0,53.0,40.0
Jammu and Kashmir,Jammu,32.713199095022645,74.8477520361991,21,1529958,19905,1289240,107489,12104,321,46657,294739,248043,254566,159257,146501,268279,1173121,377991,69193,88.0,74.0,18.0
Jammu and Kashmir,Kargil,33.565994894894914,76.63675315315312,4,140802,235,10341,108239,604,4,1005,15824,7774,40370,9826,3077,39854,82938,18,122336,81.0,61.0,28.0
Jammu and Kashmir,Kathua,32.51781678321678,75.58901398601404,7,616435,1443,540063,64234,1828,2,6112,109422,33473,181374,47694,24330,181297,426572,141224,53307,89.0,63.0,29.0
Jammu and Kashmir,Pulwama,33.88414418604652,75.00921860465118,12,560440,1537,13840,535159,1109,18,5293,73629,21703,147520,40931,31286,190369,310482,402,22607,91.0,52.0,34.0
Jammu and Kashmir,Punch,33.791241290322574,74.29593161290322,5,476835,346,32604,431279,958,2,3342,62900,15269,132139,29517,13962,164044,288430,556,176101,89.0,55.0,34.0
Jammu and Kashmir,Srinagar,34.27312898550724,75.11021159420288,10,1236829,16413,42540,1177342,2746,2,33831,165403,257721,4518,132727,121856,310225,904049,1068,8935,90.0,61.0,25.0
Jammu and Kashmir,Udhampur,33.04770670731707,75.15286951219511,19,554985,1214,489044,59771,1962,235,5744,73999,34696,148664,29657,17345,194838,330760,138569,56309,87.0,58.0,35.0
Jharkhand,Bokaro,23.6814965034965,85.98398374125864,355,2062330,9754,1636460,241451,13730,160524,37997,274726,258452,250312,154076,116396,595924,1448037,299227,255626,92.0,62.0,29.0
Jharkhand,Chatra,24.11619945750453,84.93295804701627,347,1042886,590,903179,116710,6565,12936,9115,27037,14528,200974,35342,21697,467975,587378,340553,45563,95.0,49.0,45.0
Jharkhand,Deoghar,24.33070100755672,86.75697632241814,350,1492073,1944,1165140,302626,6027,16067,13550,130193,64337,257373,54419,43979,635544,875351,190036,180962,93.0,53.0,43.0
Jharkhand,Dhanbad,23.854509090909097,86.40372924901185,354,2684487,11568,2149480,431762,11243,77182,46646,427173,405455,258764,186697,107382,662522,1882625,437309,233119,91.0,64.0,25.0
Jharkhand,Dumka,24.275006125574265,87.27662450229711,362,1321442,1193,1044726,106865,86404,78622,10396,62110,23281,303697,38383,25593,601078,743623,79614,571077,98.0,51.0,45.0
Jharkhand,Garhwa,24.082114689265527,83.68664265536722,346,1322784,565,1104475,194680,17168,4591,8881,29373,19180,272872,46882,28144,557852,716376,319946,205874,94.0,49.0,42.0
Jharkhand,Giridih,24.30578509874329,86.08710915619386,349,2445474,1944,1856202,508586,14645,59218,19976,125431,46886,452564,77540,55122,1047685,1496125,325493,238188,94.0,51.0,43.0
Jharkhand,Godda,24.8189,87.2941735483871,351,1313551,874,937126,289182,37795,47067,11925,43230,15576,276454,47395,30870,653464,696847,115567,279208,94.0,46.0,50.0
Jharkhand,Gumla,23.078532948929148,84.55056787479396,366,1025213,831,309563,51429,202449,457468,7807,31687,16445,216629,45613,23742,322119,715941,32459,706754,99.0,55.0,31.0
Jharkhand,Jamtara,23.97873318077801,86.95325080091534,363,791042,808,550560,164406,4419,68564,4959,49419,20113,165555,22995,14802,366012,428897,72885,240489,95.0,54.0,46.0
Jharkhand,Latehar,23.72511185840708,84.48298743362837,359,726978,340,473049,69808,47653,133525,6240,38194,14137,146377,23885,13956,349277,404807,154910,331096,97.0,48.0,48.0
Jharkhand,Lohardaga,23.488796043165483,84.6605169064748,356,461790,351,112378,95012,16770,235987,2954,28769,14725,96759,21987,13847,188323,306651,15330,262734,99.0,56.0,41.0
Jharkhand,Pakur,24.57260428082189,87.69691969178076,353,900422,328,410127,322963,75865,88760,4535,31414,16587,200588,15700,9822,548434,370163,28469,379054,99.0,39.0,61.0
Jharkhand,Palamu,24.196925968109337,84.20310842824594,358,1939869,2155,1683169,238295,6164,5681,19981,68238,52375,355529,100290,63595,803424,1163521,536382,181208,93.0,53.0,41.0
Jharkhand,Ranchi,23.184235061391547,85.31781937244203,364,2914253,22538,1612239,410759,193974,677445,76565,350908,310242,420740,247237,195181,613855,2246309,152943,1042016,95.0,66.0,21.0
Jharkhand,Sahibganj,24.93667989690721,87.68264097938142,352,1150567,591,628044,398243,83208,38426,9563,34879,37543,223450,28087,19832,637296,531397,72341,308343,95.0,42.0,55.0
Jharkhand,Simdega,22.608760391198054,84.59193691931536,367,599578,423,201524,15103,306601,73930,4649,16865,11114,144169,24842,13674,191341,397514,44674,424407,100.0,57.0,32.0
Karnataka,Bagalkot,16.15860676328503,75.64526070853468,556,1889752,3745,1634229,219991,3433,166,26297,301389,165858,324799,115095,82319,608843,1170429,319149,97203,99.0,59.0,32.0
Karnataka,Bangalore Rural,12.936827087794448,77.47369314775169,583,990923,3729,890429,92252,5368,85,17066,214253,95410,231052,82235,51015,205062,705888,213700,52903,95.0,70.0,21.0
Karnataka,Belgaum,16.16107219152853,74.72329042357275,555,4779661,17560,4038331,528412,18418,149,73497,808827,356198,962777,279583,201884,1346776,3282133,577418,297198,97.0,64.0,28.0
Karnataka,Bellary,15.074377548209377,76.47228471074374,565,2452595,9626,2103633,320834,14014,54,40190,440374,251876,371604,121453,89475,787762,1468497,517409,451406,98.0,58.0,32.0
Karnataka,Bidar,17.950361730769224,77.19459961538459,558,1703300,3971,1289709,335184,35438,521,36072,271439,102269,287134,105347,54900,515395,1212360,399785,235822,96.0,61.0,30.0
Karnataka,Bijapur,16.84015316666667,75.95909166666665,417,255230,117,245151,1617,2709,3793,1462,12516,7942,50449,6755,3421,163278,80069,10122,204189,98.0,34.0,64.0
Karnataka,Bijapur,16.84015316666667,75.95909166666665,557,2177331,4987,1786830,369588,2433,499,36571,326594,131041,396449,129109,96990,746979,1253491,442773,39314,96.0,57.0,34.0
Karnataka,Chikmagalur,13.425288289676422,75.67626502311249,570,1137961,4510,1004553,101235,26000,4,18727,238505,80766,311660,96470,72420,204371,891309,253651,44970,101.0,72.0,18.0
Karnataka,Chitradurga,14.29102220394736,76.57821957236843,566,1659456,5711,1520553,128751,3175,128,28897,307257,97644,349704,132435,75262,452975,1164789,389117,302554,97.0,66.0,27.0
Karnataka,Davanagere,14.330414586709884,75.91723841166937,567,1945497,7320,1658465,265805,5420,1743,39416,372671,176011,354680,154781,123863,467414,1476376,392595,233112,97.0,67.0,24.0
Karnataka,Dharwad,15.343831376975173,75.13831264108359,562,1847023,15013,1390020,386834,28747,2748,49585,347962,283397,199707,143453,137768,428556,1363803,177855,87548,97.0,70.0,23.0
Karnataka,Gadag,15.507128256880746,75.64861302752298,561,1064570,3373,907750,143665,3432,74,15625,198064,111906,180066,63816,42053,306138,702799,174196,61654,98.0,66.0,29.0
Karnataka,Gulbarga,17.070459515951594,76.87503850385033,579,2566326,9752,2011014,513125,8344,330,52483,404767,199303,400704,153746,104256,883704,1596603,648782,65259,97.0,56.0,34.0
Karnataka,Hassan,12.945098749999998,76.11049549999997,574,1776421,4851,1630814,120011,15611,3,23444,400702,132878,496103,147837,103152,401227,1340398,345031,32329,101.0,69.0,23.0
Karnataka,Haveri,14.737582809224318,75.3961230607966,564,1597668,2456,1281878,297927,2406,702,17819,295937,98488,315076,84357,55310,383494,1188358,219976,141380,95.0,68.0,24.0
Karnataka,Kodagu,12.39684468085106,75.79336595744688,576,554519,3308,448986,87274,17130,220,10758,113931,31792,181182,54939,43225,91352,430787,73584,58054,102.0,74.0,16.0
Karnataka,Kolar,13.312799881235172,78.01376947743476,581,1536401,5051,1305431,199873,26722,92,27235,309494,151042,326567,107929,71422,399089,1079088,465867,78875,98.0,66.0,26.0
Karnataka,Koppal,15.651253271028034,76.1617048598131,560,1389920,2135,1218024,161770,4081,461,15263,223166,64681,272968,72243,43967,472182,946512,258608,164271,99.0,58.0,34.0
Karnataka,Mandya,12.574901806239744,76.81570098522172,573,1805769,3367,1712695,77801,8506,109,20265,391033,103435,458867,157839,102838,504734,1270494,265294,22402,100.0,64.0,28.0
Karnataka,Mysore,12.248100259403367,76.52881802853437,577,3001127,28397,2631985,290549,39361,493,80086,640868,380386,540596,222230,212541,747237,2063359,536643,334547,99.0,65.0,25.0
Karnataka,Raichur,16.050795353982295,76.87368606194688,559,1928812,5200,1634062,272022,10394,29,33903,314547,125402,330446,82082,50463,783126,997638,400933,367071,100.0,51.0,41.0
Karnataka,Shimoga,14.063845885634592,75.17882078103197,568,1752753,8791,1479424,234664,26521,367,35207,363835,201662,352444,132138,111753,355222,1383122,308158,65412,100.0,72.0,20.0
Karnataka,Tumkur,13.592467760074973,77.02297966260545,571,2678980,7971,2413812,245923,9130,161,41751,562769,204799,685443,213588,143735,686274,1969712,506901,209559,98.0,68.0,26.0
Karnataka,Udupi,13.450404228534568,74.72009990316337,569,1177361,9070,1009179,96740,65838,155,24817,224814,115572,269817,109663,107279,204028,1018426,75429,52897,109.0,79.0,17.0
Kerala,Alappuzha,9.542602965599087,76.38010796263319,598,2127789,28842,1460447,224545,435056,311,71593,507913,392117,331419,274789,198858,163991,1991380,201211,6574,110.0,87.0,8.0
Kerala,Ernakulam,10.004879301987431,76.26957729035381,595,3282388,88737,1509557,514397,1248137,1083,184167,771287,804997,369694,389793,429880,268315,2848777,268411,16559,103.0,87.0,8.0
Kerala,Idukki,9.80480963855423,77.04586641566264,596,1108974,8250,541854,82206,481507,384,24863,244844,20823,391610,136428,86136,126589,958204,145486,55815,101.0,83.0,11.0
Kerala,Kannur,11.941523076923056,75.35209891725934,589,2523003,32653,1509592,742483,262526,722,83940,511167,566191,306288,308670,217203,279352,2290106,83350,41371,114.0,85.0,11.0
Kerala,Kasaragod,12.33310309912974,75.07768497134369,588,1307375,10378,729987,486913,87454,152,32484,237670,166164,251641,122657,76192,212905,1068310,53283,48857,108.0,79.0,16.0
Kerala,Kollam,8.929388820570157,76.6360775852431,600,2635375,31542,1697635,508500,421598,619,83133,630767,401415,523715,307950,233402,231286,2341963,328263,10761,111.0,85.0,9.0
Kerala,Kottayam,9.643701174068417,76.46059673302705,597,1974551,37849,983598,126499,858608,565,83999,464039,196194,481967,280720,221350,134393,1793308,153909,21972,104.0,89.0,7.0
Kerala,Kozhikode,11.392924270557026,75.71158720159153,591,3086293,36791,1734958,1211131,131516,588,107602,641660,666543,323793,351267,250117,335520,2744977,199191,15228,110.0,85.0,11.0
Kerala,Malappuram,10.97329875666072,75.93910775606876,592,4112920,27909,1135259,2888849,81556,579,119918,730119,522586,634543,392867,203779,622345,3572086,308266,22990,110.0,81.0,15.0
Kerala,Palakkad,10.784926903553291,76.49980490693744,593,2809934,27162,1875980,812936,114397,400,69440,587583,228442,665899,232109,180540,439934,2371669,403833,48972,107.0,80.0,16.0
Kerala,Thiruvananthapuram,8.537101759082221,76.88711502868073,601,3301427,71621,2194057,452915,630573,1082,155321,783872,609824,559293,389161,381782,309042,2838716,372977,26759,109.0,84.0,9.0
Kerala,Thrissur,10.458932647907687,76.12321940836945,594,3121200,56148,1823442,532839,757484,585,132774,721625,715119,336748,362657,338600,307665,2787333,324350,9430,111.0,86.0,10.0
Kerala,Wayanad,11.715277464788736,76.07587007042254,590,817420,4712,404460,234185,174453,286,15944,149864,11805,266183,87042,51111,131211,678654,32578,151443,103.0,79.0,16.0
Madhya Pradesh,Anuppur,23.18184220430107,81.86560000000007,461,749237,1290,686524,21473,2132,35434,7266,81338,60325,147388,42743,31646,271733,458365,74385,358543,98.0,58.0,36.0
Madhya Pradesh,Ashoknagar,24.63098846153845,77.82974493927134,459,845071,619,778214,40707,635,27,6016,84720,37135,169606,29551,22791,359525,435809,175764,82072,90.0,56.0,43.0
Madhya Pradesh,Balaghat,21.80020720640569,80.42170053380796,457,1701698,1712,1519384,38542,5295,58064,13306,277927,70793,400074,126308,74213,493415,1215160,125426,383026,102.0,67.0,29.0
Madhya Pradesh,Barwani,21.702135714285724,74.91004719710673,441,1385881,1158,1318869,58222,2967,263,8516,181139,48912,250358,42649,30754,825034,503604,87991,962145,98.0,40.0,60.0
Madhya Pradesh,Betul,21.964626315789477,77.7873428189117,447,1575362,2109,1505745,37590,3271,13048,13755,230974,87704,318945,105696,82761,603098,982706,159296,667018,97.0,60.0,38.0
Madhya Pradesh,Bhind,26.35951126187245,78.7618324287653,420,1703005,1166,1595400,66776,973,73,14368,107819,88385,271211,96011,50222,388473,957870,374799,6131,84.0,64.0,23.0
Madhya Pradesh,Bhopal,23.480726143790854,77.39246623093679,444,2371061,40788,1755861,525434,23432,335,94729,452912,581826,118893,178165,266618,462581,1506450,357516,69429,92.0,70.0,20.0
Madhya Pradesh,Burhanpur,21.364567254408065,76.24460478589425,467,757847,986,552526,180840,1199,99,5058,112420,62861,115979,42618,28237,317962,429454,64254,230095,95.0,54.0,42.0
Madhya Pradesh,Chhatarpur,24.813637376460004,79.56449299191374,425,1762375,1880,1676918,70351,1980,102,15567,176056,95048,375869,77787,59704,770268,925604,405313,73597,88.0,54.0,44.0
Madhya Pradesh,Chhindwara,22.227966971713823,78.76413136439254,455,2090922,3588,1923920,100692,4893,25771,20034,344875,140802,413142,167946,112383,663446,1353819,232244,769778,96.0,62.0,32.0
Madhya Pradesh,Damoh,23.76624407960196,79.47049303482588,428,1264219,1432,1186420,47966,1681,82,10504,187731,66514,303387,64414,41158,469038,771117,246337,166295,91.0,59.0,37.0
Madhya Pradesh,Datia,25.90226439560441,78.63916571428574,422,786754,616,747693,28483,683,10,5251,97696,43401,160453,48978,34853,260076,513988,200270,15061,87.0,62.0,33.0
Madhya Pradesh,Dewas,22.7851110021322,76.46088805970157,437,1563715,3518,1376591,174259,2355,72,16523,270457,101014,274995,94403,55383,565365,897959,292007,272701,94.0,59.0,36.0
Madhya Pradesh,Dhar,22.572681718963157,75.1105620736698,438,2185793,2388,2051219,116202,2261,88,18626,349639,103364,412348,99882,66721,1021851,978149,145436,1222814,96.0,49.0,47.0
Madhya Pradesh,Dindori,22.83738437047757,81.04332966714911,453,704524,554,605435,6736,4238,84006,6447,62372,9774,218021,31104,15179,295655,398176,39782,455789,100.0,54.0,42.0
Madhya Pradesh,Guna,24.49043927178156,77.2235895968791,458,1241519,2482,1172248,49203,1208,52,11740,144248,72320,212765,50724,42147,578034,618849,193115,190819,91.0,53.0,47.0
Madhya Pradesh,Gwalior,26.04074441964285,78.12782433035713,421,2032036,15779,1835299,141735,4119,217,46454,306859,272172,172720,166719,193947,554486,1253339,393068,72133,86.0,67.0,27.0
Madhya Pradesh,Harda,22.227659781121783,77.07022571819435,448,570465,986,527462,38640,683,55,5376,95066,31845,112714,31939,27126,177731,347639,92865,159678,93.0,62.0,31.0
Madhya Pradesh,Hoshangabad,22.595268801996703,78.02168094841929,449,1241350,2871,1175203,52269,4453,107,14456,198076,105746,209650,89589,84769,344492,791254,205007,197300,91.0,65.0,28.0
Madhya Pradesh,Indore,22.680265752128648,75.9133801324502,439,3276697,48691,2728225,415142,18523,720,111478,593576,587947,200371,300076,382658,718174,2366526,545239,217679,93.0,70.0,22.0
Madhya Pradesh,Jabalpur,23.18525572327043,79.98328754716981,451,2463289,20443,2159065,203652,23142,21010,58601,452023,352477,272284,222987,235072,540029,1685390,348029,375231,93.0,71.0,22.0
Madhya Pradesh,Jhabua,22.419578015397768,74.40921616766468,464,1025048,744,960925,15733,38423,388,5591,125411,24713,211080,28990,20240,775664,307994,17427,891818,99.0,34.0,76.0
Madhya Pradesh,Katni,23.724416229116937,80.33819665871127,450,1292042,2179,1240650,37232,3158,2643,13094,172416,72880,276151,80935,53578,465374,820953,155717,317699,95.0,61.0,36.0
Madhya Pradesh,Mandla,22.70348712446353,80.38600543633753,454,1054905,912,849518,16558,12450,170533,9042,143803,37258,279674,58066,35476,376944,623632,48425,610528,101.0,57.0,36.0
Madhya Pradesh,Mandsaur,24.19278764044944,75.43588667736759,433,1340411,2324,1192588,125548,1120,77,12507,239885,81832,302287,77219,52546,467002,855816,249024,33092,96.0,62.0,35.0
Madhya Pradesh,Morena,26.37313504531724,77.88447341389724,419,1965970,1781,1875495,76159,1092,92,20172,131486,95288,319298,115790,71005,706917,1168209,421519,17030,84.0,60.0,36.0
Madhya Pradesh,Neemuch,24.70311893333336,75.06608186666664,432,826067,1945,741288,67324,1508,115,8342,145258,67962,174235,53465,42343,289113,519073,111162,71441,95.0,62.0,35.0
Madhya Pradesh,Panna,24.451325840092657,80.21133001158752,426,1016520,653,974748,35214,418,218,8501,76097,32179,256744,47903,29795,427997,557003,207990,170879,91.0,54.0,42.0
Madhya Pradesh,Raisen,23.292518206521724,78.16305495923909,446,1331597,1141,1195235,120331,1725,190,9931,194373,74441,251272,69419,48384,444877,832809,225891,205006,90.0,62.0,33.0
Madhya Pradesh,Rajgarh,23.785499026425583,76.66431223922116,442,1545814,1611,1433879,106928,1243,50,12718,231130,69823,331894,72316,51499,706958,742583,295718,53751,96.0,52.0,46.0
Madhya Pradesh,Ratlam,23.503562290502792,75.14895782122909,434,1455069,3644,1267043,151071,3996,123,14905,213825,107151,266716,86507,67192,622153,819266,198612,409865,97.0,57.0,43.0
Madhya Pradesh,Rewa,24.861184625158856,81.57572465057183,430,2365106,3406,2268838,85414,1964,232,31194,251132,94489,523910,180635,122371,766166,1508142,383508,311985,93.0,61.0,32.0
Madhya Pradesh,Sagar,23.800318709677374,78.71940357771273,427,2378458,4546,2198297,103480,5580,168,24811,366494,165507,448408,137899,116753,711804,1554882,501630,221936,89.0,65.0,30.0
Madhya Pradesh,Satna,24.62777621776502,80.75547048710598,429,2228935,3754,2158623,59471,2228,1689,22751,294702,114173,461831,148091,105499,715509,1450133,398569,319975,93.0,62.0,32.0
Madhya Pradesh,Sehore,22.9297199679658,77.06780202883085,445,1311332,1566,1163607,137980,1404,66,11166,212138,59220,270427,77541,50655,508396,765195,271281,145512,92.0,60.0,39.0
Madhya Pradesh,Seoni,22.33230487804874,79.66053863928111,456,1379131,1182,1145052,79739,1857,135315,10417,228695,47542,335045,84398,55984,458811,879546,130797,519856,98.0,63.0,33.0
Madhya Pradesh,Shahdol,23.44859864559819,81.4596831828442,460,1066063,1733,997073,42426,2372,19448,10817,113184,57846,233594,60915,46513,422736,637863,89733,476008,97.0,57.0,40.0
Madhya Pradesh,Shajapur,23.566620317220547,76.33555181268885,436,1512681,1382,1321003,174724,815,66,10797,232735,73997,312611,75967,48671,544791,890916,353914,37836,94.0,59.0,36.0
Madhya Pradesh,Sheopur,25.78014810996563,77.16911116838484,418,687861,273,638702,41396,230,40,5393,74770,26376,150146,24732,17091,393141,285152,108391,161448,90.0,48.0,57.0
Madhya Pradesh,Shivpuri,25.37802451874367,77.74861600810549,423,1726050,1852,1648749,51200,1117,72,15304,148128,66759,367859,58509,44812,719547,794589,321515,227802,88.0,52.0,42.0
Madhya Pradesh,Sidhi,24.17547189952905,82.1053783359498,462,1127033,837,1077545,34419,511,12556,10790,102228,25916,250953,60845,33067,477472,661238,130202,313304,96.0,53.0,42.0
Madhya Pradesh,Tikamgarh,25.14099852104666,78.89357064846428,424,1445166,1090,1383475,44143,588,39,10899,132725,60220,322772,58245,35034,659348,711045,361604,67857,90.0,52.0,46.0
Madhya Pradesh,Ujjain,23.319288862745065,75.80383717647058,435,1986864,7501,1718204,233133,4659,211,27733,323379,188684,300765,119586,111290,659279,1148280,523869,48730,96.0,62.0,33.0
Madhya Pradesh,Umaria,23.59601063063061,80.90879477477475,431,644758,839,620515,15966,667,6028,6360,67975,29966,138100,27216,18144,230782,351218,58147,300687,95.0,55.0,36.0
Madhya Pradesh,Vidisha,23.82838307984792,77.9013507604563,443,1458875,1926,1287391,149548,1313,70,12888,181510,83830,292579,65581,59814,512311,816456,292144,67603,90.0,59.0,35.0
Maharashtra,Akola,20.746310479041902,77.12122320359276,501,1813906,6163,1107809,357253,4483,389,24232,314490,196077,308158,205723,112574,352687,1460317,364059,100280,95.0,78.0,19.0
Maharashtra,Amravati,21.16520991810736,77.67583503184723,503,2888445,9438,2055177,421410,7223,3288,36185,512492,272894,508921,346876,203273,478074,2349512,506374,404128,95.0,78.0,17.0
Maharashtra,Aurangabad,20.0979228832952,75.32072196796334,235,2540073,2362,2291133,237353,2218,19,31168,44456,49006,428291,136783,91371,784131,1833998,612064,1033,93.0,58.0,31.0
Maharashtra,Aurangabad,20.0979228832952,75.32072196796334,515,3701282,23258,2545438,786677,15991,1005,69937,589477,427343,551789,310762,253253,819734,2611982,539368,143366,92.0,68.0,22.0
Maharashtra,Bhandara,21.211792649727748,80.10950199637024,506,1200334,2932,1009352,26502,2145,3555,13165,227025,72575,283843,153749,67061,235524,949619,200372,88886,98.0,75.0,20.0
Maharashtra,Bid,18.952353340080982,75.69319706477731,523,2585049,5614,2174672,320395,2097,399,29198,402052,135457,563114,206530,129996,821607,1691672,351254,32722,92.0,66.0,32.0
Maharashtra,Buldana,20.56680611183355,76.39017880364096,500,2586258,4767,1845424,354236,3531,522,24877,423036,152787,575405,228266,113783,600436,1940864,470895,124837,93.0,73.0,23.0
Maharashtra,Chandrapur,20.095609090909075,79.31556380471388,509,2204307,8239,1780085,92297,10701,23188,31419,418666,233331,451324,241179,126488,516728,1631602,348365,389441,96.0,72.0,23.0
Maharashtra,Dhule,21.274018690400517,74.58719071837263,498,2050862,6065,1825460,187901,3653,912,27139,315332,146013,382777,182739,114931,649568,1335558,127571,647315,95.0,63.0,32.0
Maharashtra,Gondiya,21.225008411214997,80.17522698598128,507,1322507,2866,1153861,26157,1827,5080,13595,239981,66813,319702,159570,57923,256549,1060206,175961,214253,100.0,76.0,19.0
Maharashtra,Hingoli,19.59525302245251,77.09239412780653,512,1177345,1221,863199,127552,992,103,9676,159114,41913,242456,74544,38698,331388,824880,182565,111954,94.0,67.0,28.0
Maharashtra,Jalgaon,20.8828943415638,75.55140421810695,499,4229917,14297,3457615,560261,7091,9662,56775,720791,373565,796223,375643,229987,1003050,3014615,389273,604367,92.0,68.0,24.0
Maharashtra,Jalna,19.984612534818933,75.98473607242339,514,1959046,3791,1504641,274221,12542,336,17236,288895,98084,404746,120715,64060,545980,1331287,272266,42263,94.0,61.0,28.0
Maharashtra,Kolhapur,16.44881301587301,74.12897150793648,530,3876001,22269,3379906,286558,15573,1274,71879,770005,382818,796496,395234,335413,778000,2901125,504461,30206,96.0,73.0,20.0
Maharashtra,Latur,18.348687268993856,76.75812607802874,524,2454196,6217,2006984,367664,2387,310,29758,381722,157016,428616,224998,153256,596213,1765952,480913,57488,93.0,67.0,24.0
Maharashtra,Nagpur,21.196556862745105,79.02166176470584,505,4653570,57964,3492202,390974,34667,12181,135750,917626,877522,430844,542228,493236,601547,3703540,867713,437571,95.0,79.0,13.0
Maharashtra,Nanded,19.209316983017,77.6829048951049,511,3361292,7548,2501741,471951,3902,1273,43055,488748,230563,591119,255650,156225,884626,2327305,640483,281695,94.0,65.0,26.0
Maharashtra,Nandurbar,21.523175625248147,74.32638757443429,497,1648295,2579,1521618,96182,8467,2907,17047,186202,71572,333440,113019,58461,790613,848475,47985,1141933,98.0,55.0,48.0
Maharashtra,Nashik,20.266912871287143,74.03824168316828,516,6107187,45039,5237009,693052,23946,1795,138887,904710,764271,904661,485052,373100,1481778,4220456,554687,1564369,93.0,71.0,24.0
Maharashtra,Osmanabad,18.19459456066944,75.99495575313809,525,1657576,3209,1437623,178925,942,195,18183,240042,77832,367158,139479,96847,440363,1193594,265184,36039,92.0,69.0,27.0
Maharashtra,Parbhani,19.31032425249168,76.70163338870431,513,1836086,3982,1328385,306364,2081,262,21196,272486,133759,293480,116041,81333,552643,1266426,247308,40514,95.0,63.0,30.0
Maharashtra,Pune,18.51696171428573,74.12922881632647,521,9429408,235018,8090254,673704,134192,9873,490260,1925019,2056739,1165718,867256,1086650,1353077,6736249,1180703,348876,91.0,76.0,14.0
Maharashtra,Raigarh,18.453257637845976,73.0090609418579,403,1493984,3342,1422986,17332,47653,1782,13857,297308,66638,354278,93340,66358,460166,1017307,224942,505609,99.0,64.0,31.0
Maharashtra,Raigarh,18.453257637845976,73.0090609418579,520,2634200,38570,2239370,227465,17452,1159,96301,547206,377160,581868,221410,204507,482420,1861740,134952,305125,96.0,74.0,18.0
Maharashtra,Ratnagiri,17.210195070127703,73.25725893866404,528,1615069,7752,1307211,187197,1990,95,31062,367352,100824,538538,111600,65700,319622,1251437,66948,20374,112.0,74.0,20.0
Maharashtra,Sangli,17.154930181086502,74.70713822937628,531,2822143,13212,2440312,239607,9098,769,49056,485126,226801,626872,244804,214003,579039,2124179,353093,18333,97.0,73.0,21.0
Maharashtra,Satara,17.6737908974359,74.18052064102558,527,3003741,14093,2691952,146970,4408,676,57423,562653,200949,774522,299993,243457,545423,2313266,323236,29635,99.0,74.0,18.0
Maharashtra,Sindhudurg,16.170948049777163,73.51329008172343,529,849651,3517,780384,26264,15471,53,15721,194228,44989,295847,89023,48418,121922,702460,55586,6976,104.0,78.0,14.0
Maharashtra,Solapur,17.837357937584812,75.42394823609216,526,4317756,15145,3795424,441254,9882,568,59296,595560,376302,779929,328020,236302,976795,2951035,649745,77592,94.0,67.0,23.0
Maharashtra,Thane,19.698767747440264,72.79882742564581,517,11060148,256170,8716055,1355630,280700,9862,551643,2231800,2904157,713994,1080597,961719,1692022,7739336,730089,1542451,89.0,74.0,15.0
Maharashtra,Wardha,20.80743024390242,78.57259105691062,504,1300774,4313,1057096,53854,2696,2254,16260,266155,120218,268486,158055,93772,212054,1012774,188830,149507,95.0,78.0,16.0
Maharashtra,Washim,20.282282394366213,77.25502394366208,502,1197160,1875,859949,142672,1707,381,10757,196022,55921,274925,116032,47865,291525,899778,229462,80471,93.0,73.0,24.0
Maharashtra,Yavatmal,20.04258346738159,78.05326371760479,510,2772348,6094,2251401,239236,4567,3745,29917,446516,168889,629243,245819,123074,718204,2117390,328518,514057,95.0,73.0,26.0
Manipur,Bishnupur,24.50712111801243,93.8246236024845,275,237399,676,175102,18691,4264,38457,3447,34364,21172,34977,20077,20074,67610,175322,22113,3287,100.0,66.0,28.0
Manipur,Chandel,24.2635812987013,94.09443844155844,280,144182,184,10810,3086,129049,354,1782,18764,3783,30377,12213,8105,38191,115663,540,128280,93.0,63.0,26.0
Manipur,Churachandpur,24.30309718875504,93.38671506024085,274,274143,837,12034,2886,254979,2333,4496,29894,4853,52972,23284,14523,57561,243125,443,254787,97.0,71.0,21.0
Manipur,Senapati,25.08465586034914,94.03366234413956,272,479148,256,43833,1649,426819,1243,2170,22798,1826,38008,40438,24940,191001,347896,1000,419210,94.0,55.0,40.0
Manipur,Tamenglong,24.98312942238265,93.49450740072204,273,140651,125,2995,589,134760,1144,1362,11541,4119,23982,11645,7102,45317,103294,22,134626,94.0,60.0,32.0
Manipur,Thoubal,24.545392553191498,93.97959893617023,276,422168,880,267146,107323,4322,42347,5110,49507,38302,65961,37899,28550,118088,315532,40593,1808,100.0,64.0,28.0
Manipur,Ukhrul,25.05900314960629,94.44129566929138,279,183998,276,7553,1115,174112,32,2437,14026,5806,36084,22729,15636,42156,158906,248,173606,94.0,71.0,23.0
Meghalaya,East Garo Hills,25.82728228228228,90.64684924924916,294,317917,288,17272,3359,289708,5617,2368,24550,11518,62698,9473,2484,100781,218602,509,305180,97.0,60.0,32.0
Meghalaya,East Khasi Hills,25.303763888888884,91.75922519841272,298,825922,5032,144935,14185,543394,115597,19306,135941,108843,106248,58836,61639,168575,634037,5642,661158,101.0,70.0,20.0
Meghalaya,Jaintia Hills,25.33959557069844,92.37608160136298,299,395124,510,12456,1646,271596,107559,4333,41677,7171,76546,13544,8039,165184,215217,1317,376099,101.0,47.0,42.0
Meghalaya,South Garo Hills,25.240568578553614,90.64560349127176,295,142334,179,7036,1050,132984,362,1625,10940,3713,35930,3998,826,44849,95846,319,134237,95.0,58.0,32.0
Meghalaya,West Garo Hills,25.495285185185185,90.03709947089942,293,643291,1630,122936,106788,389956,16950,8872,51301,18594,139351,29404,10856,208900,420622,8810,474009,98.0,56.0,32.0
Meghalaya,West Khasi Hills,25.500889926739926,91.25364542124538,296,383461,149,6498,1533,366881,5878,2462,32873,12299,74832,12295,6450,133244,251275,168,375097,98.0,60.0,35.0
Mizoram,Aizawl,23.90781335453101,92.85359459459472,283,400309,4019,13249,5264,379134,505,21093,79804,80341,20570,37701,31310,38248,347470,627,373542,101.0,85.0,10.0
Mizoram,Champhai,23.54166580976866,93.24221799485862,284,125745,186,1075,699,123446,194,2263,23948,12717,18395,4956,4087,15449,101684,17,123466,98.0,80.0,12.0
Mizoram,Kolasib,24.2020004347826,92.73470391304348,282,83955,367,4000,4426,75210,46,1986,14853,12507,9669,3473,2530,14217,65726,84,73609,96.0,78.0,17.0
Mizoram,Lawngtlai,22.36102843137253,92.66964156862753,287,117894,162,1668,522,63892,2,1329,9283,5273,21993,3763,2515,54874,74574,146,112354,95.0,53.0,47.0
Mizoram,Lunglei,23.007717036172675,92.63512555425892,286,161428,482,5231,1290,127124,5,3725,26394,17315,21479,8503,5509,32451,124314,178,153533,95.0,75.0,20.0
Mizoram,Mamit,23.73852942502819,92.4330803833147,281,86364,90,2989,1782,69104,19,1073,12158,4129,16726,3180,1771,20091,64717,51,82080,93.0,70.0,23.0
Mizoram,Saiha,22.35744801061008,93.02827931034489,288,56574,168,933,514,54977,2,1194,7400,5784,7043,3628,2204,8787,47873,83,54642,98.0,75.0,16.0
Mizoram,Serchhip,23.263864705882344,92.914158496732,285,64937,131,991,335,63444,35,987,12315,8018,7472,2915,2128,5963,54133,32,62889,98.0,84.0,9.0
Nagaland,Dimapur,25.814176811594223,93.75074057971014,265,378811,3303,108900,31212,234239,157,12077,71413,62853,49116,26712,27532,58926,277956,0,223989,92.0,73.0,16.0
Nagaland,Kohima,25.60311428571428,93.78600657596373,270,267988,1928,25496,4384,234955,335,7982,50724,44255,31845,19855,23439,45802,201718,0,224738,93.0,74.0,17.0
Nagaland,Mokokchung,26.478911764705888,94.522426006192,262,194622,537,9840,2057,181847,6,2728,40154,17742,37536,13077,10299,22555,169448,0,178431,93.0,82.0,12.0
Nagaland,Mon,26.69207374301676,95.03072988826828,261,250260,178,8102,3444,236494,1,2844,14398,7415,43607,3565,1772,130529,127058,0,238285,90.0,48.0,52.0
Nagaland,Phek,25.63272986577182,94.56814563758392,266,163418,170,3563,950,158224,198,1558,36182,7295,38903,7268,5926,44456,112110,0,157146,95.0,65.0,27.0
Nagaland,Tuensang,26.21104453280316,94.85809880715708,267,196596,155,2979,1052,191864,1,2251,24998,9451,40690,6008,2760,66450,127913,0,190916,93.0,60.0,34.0
Nagaland,Wokha,26.202611551155112,94.1990815181518,264,166343,198,5605,2043,158236,20,1757,25268,8170,38499,10223,8030,25048,131916,0,156621,97.0,77.0,15.0
Nagaland,Zunheboto,26.028178205128206,94.50026666666668,263,140757,261,2580,772,136995,2,2008,28846,6044,31267,8821,5560,25988,115295,0,136561,98.0,73.0,18.0
Orissa,Baleshwar,21.48570932311624,87.08085828011933,377,2320529,7370,2197709,94254,6434,18345,28289,296834,82440,601154,112392,105962,628627,1742405,478586,275678,96.0,70.0,27.0
Orissa,Bhadrak,20.95262735257214,86.81496204516931,378,1506337,2637,1398543,104202,745,61,15609,164636,54244,373862,71815,67536,323145,1232900,334896,30428,98.0,73.0,21.0
Orissa,Cuttack,20.407640646029623,85.7776810228802,381,2624470,15046,2457729,141263,11985,168,40589,349587,210768,579529,159456,181601,472182,2062622,498633,93745,94.0,77.0,18.0
Orissa,Dhenkanal,20.79887159353349,85.53226836027711,383,1192811,1810,1185542,4805,727,139,10600,117172,36979,315390,53162,43064,341887,859997,234079,162056,95.0,70.0,29.0
Orissa,Gajapati,19.121080882352945,84.14015091911759,389,577817,635,353160,1556,219482,4,5523,63112,23050,152095,17084,12556,335821,268110,39175,313714,104.0,45.0,58.0
Orissa,Ganjam,19.2632617564534,84.80297710437702,388,3529031,9049,3486059,13315,23975,76,41059,405298,219918,795476,121151,97147,1055331,2340777,688235,118928,98.0,63.0,30.0
Orissa,Jharsuguda,21.827058566978184,83.93581682242987,371,579505,2498,553587,12783,10462,67,7555,81433,73962,103224,32909,22010,143508,408064,104620,176758,95.0,70.0,25.0
Orissa,Kalahandi,19.784253092783523,83.1124043814433,395,1576869,1953,1555367,4975,11160,220,12622,91171,38412,456336,40383,27385,765368,780451,286580,449456,100.0,51.0,49.0
Orissa,Kandhamal,20.092878624813142,84.02216352765326,390,733110,768,580300,2138,148895,23,6609,28736,24489,218446,21351,14962,287948,450614,115544,392820,104.0,55.0,39.0
Orissa,Kendrapara,20.606319815982264,86.83763247572003,379,1440361,1628,1386792,50247,1423,24,11836,173107,23494,414749,76449,75926,294723,1242976,309780,9484,101.0,76.0,20.0
Orissa,Khordha,20.054162322274863,85.52234834123229,386,2251673,35701,2147632,84060,12527,434,75588,349860,356895,331834,177974,247498,371244,1945913,297472,115051,93.0,78.0,16.0
Orissa,Koraput,18.82627794779476,82.81278469846964,398,1379647,3988,1294151,8850,68550,3384,17294,85766,78339,381789,32257,29000,770707,547812,196540,697583,103.0,41.0,56.0
Orissa,Malkangiri,18.25227930367506,81.98293636363628,399,613192,448,600219,1871,10039,35,3908,24604,15839,167884,8487,5585,390356,204863,138295,354614,102.0,40.0,64.0
Orissa,Mayurbhanj,21.897621545157754,86.4030408052231,376,2519738,2950,2113079,33706,15008,351714,17999,140189,64479,689110,92060,72847,1094844,1455985,184682,1479576,101.0,54.0,43.0
Orissa,Nayagarh,20.192895622119817,85.05614700460825,385,962789,1163,955754,5278,383,12,8278,124984,26688,261646,36951,33148,232558,745059,136399,58691,92.0,71.0,24.0
Orissa,Nuapada,20.471309512195116,82.59152536585364,394,610382,757,601092,4952,1778,22,4221,43976,11869,197258,19577,10131,316086,338480,82159,206327,102.0,49.0,52.0
Orissa,Puri,19.83509174603177,85.86698989898981,387,1698730,3416,1644905,46094,4239,302,16006,201605,72210,402014,84374,87000,309790,1395194,325133,6129,96.0,76.0,18.0
Orissa,Rayagada,19.292840020060204,83.45860120361095,396,967911,1553,874445,4607,84916,44,9166,61543,49205,237343,21439,17681,583140,346980,139514,541905,105.0,42.0,60.0
Orissa,Sambalpur,21.515752380952385,84.34958483245157,372,1041099,5231,964188,20120,50637,1117,14521,126498,94798,220697,50705,45828,282248,708229,191827,355261,98.0,68.0,27.0
Orissa,Sundargarh,22.06354819277107,84.50524819277099,374,2093437,12787,1532352,71391,385011,89986,35024,223537,230151,387911,120373,94710,660465,1388888,191660,1062349,97.0,64.0,32.0
Puducherry,Karaikal,10.876161726078813,79.82369793621002,637,200222,1868,152638,28835,18391,14,4870,47880,33715,35618,15930,18998,32717,154561,35348,0,105.0,77.0,16.0
Puducherry,Mahe,12.006420793787758,75.28275021570326,636,41816,574,27940,12856,958,3,1484,7150,12110,0,5711,4475,2993,36858,144,0,118.0,87.0,7.0
Puducherry,Yanam,16.707695652173904,82.26187304347832,634,55626,207,53537,1191,873,4,597,12859,15519,0,4101,3836,14923,40860,8427,0,104.0,71.0,27.0
Punjab,Amritsar,31.548679820627772,74.79883856502238,49,2490656,29961,690939,12502,54344,1044,63864,461231,385476,275477,203656,142399,540010,1485800,770864,0,89.0,68.0,22.0
Punjab,Bathinda,30.190524611973352,75.05685898004438,46,1388525,11284,380569,16299,2474,559,32253,255650,137563,218159,96329,70240,438529,793380,450473,0,87.0,61.0,32.0
Punjab,Faridkot,30.591187250996025,74.79751553784862,45,617508,4348,141363,3125,1227,103,12276,113549,58917,99946,48360,29838,204895,373752,240328,0,89.0,62.0,33.0
Punjab,Fatehgarh Sahib,30.64290947368421,76.36208394736842,40,600163,5138,152851,16808,1698,251,14294,113683,57337,117559,59555,34990,142314,432310,192493,0,87.0,71.0,24.0
Punjab,Firozpur,30.63407535211269,74.40245732394365,43,2029074,10042,906408,6844,19358,278,31070,349662,153868,348522,147698,82448,714869,1207928,855726,0,89.0,60.0,35.0
Punjab,Gurdaspur,32.04283371212125,75.3204064393939,35,2298323,14428,1074332,27667,176587,812,38445,411216,185488,420860,243539,104345,478020,1528979,580576,0,90.0,71.0,21.0
Punjab,Hoshiarpur,31.55157169811319,75.8469857442349,38,1586625,13747,1000743,23089,14968,531,34328,319930,128592,422673,176013,93618,294723,1227466,557504,0,96.0,76.0,19.0
Punjab,Jalandhar,31.250336907216507,75.54400350515463,37,2193590,39082,1394329,30233,26016,805,79134,446200,377791,330339,216646,162965,387809,1575774,854444,0,92.0,74.0,18.0
Punjab,Kapurthala,31.336592638036837,75.47641165644177,36,815168,9732,336124,10190,5445,334,23145,161206,95770,165433,77442,48221,174995,575495,276707,0,91.0,71.0,21.0
Punjab,Ludhiana,30.76596397379912,75.83110851528383,41,3498739,58589,1502403,77713,16517,1254,123400,703624,641789,395032,318876,272280,631980,2372099,923358,0,87.0,73.0,18.0
Punjab,Mansa,29.919547714285724,75.4304922857143,47,769751,2673,156539,10375,917,493,10085,140099,50786,145603,48663,27461,311513,434158,258878,0,88.0,55.0,40.0
Punjab,Moga,30.756540067340065,75.1600845117845,42,995746,7897,158414,9388,3277,365,21662,183396,74144,214295,85642,37417,306336,638000,363417,0,89.0,63.0,31.0
Punjab,Muktsar,30.31243303303303,74.5518747747748,44,901896,4571,254920,4333,1681,433,14077,166585,74650,149507,62612,36905,340886,544427,381554,0,90.0,58.0,38.0
Punjab,Patiala,30.214540380693364,76.27505893949697,48,1895686,24274,783306,40043,5683,1410,55105,352929,218090,299279,157435,141947,518772,1280816,465359,0,89.0,67.0,27.0
Punjab,Rupnagar,30.910937330754347,76.53743500967126,51,684627,6600,304481,14492,2094,143,17542,129123,60537,148162,68794,38823,124100,492696,180905,0,92.0,73.0,18.0
Punjab,Sangrur,30.185045204336895,75.89437014178496,53,1655169,10736,389410,179116,2406,1038,30955,305557,156788,292156,130155,73636,570103,1054379,461609,0,89.0,61.0,34.0
Rajasthan,Ajmer,26.199300378787903,74.6990419191919,119,2583052,13499,2201663,314159,10605,184,41732,393498,274919,409335,130608,172683,1034334,1618919,478027,63482,95.0,59.0,40.0
Rajasthan,Alwar,27.55271738035265,76.65359630562563,104,3674179,9750,3039279,547335,2696,348,45770,485723,212967,782294,230415,222622,1384905,2262867,653036,289249,89.0,59.0,38.0
Rajasthan,Banswara,23.453642032967014,74.44246868131869,125,1797485,2324,1701234,48834,22250,109,15062,120603,39407,390437,50438,47094,1040914,748794,80091,1372999,98.0,46.0,58.0
Rajasthan,Baran,24.98023243243244,76.86210651828291,128,1222755,1363,1133349,79984,1432,48,9491,161310,69804,249184,46847,49939,545842,722755,221184,276857,93.0,57.0,45.0
Rajasthan,Barmer,25.77070908045978,71.50297126436782,115,2603751,2766,2244882,321192,1157,34,37730,126494,55980,542825,52272,39533,1501858,1179796,436414,176257,90.0,46.0,58.0
Rajasthan,Bharatpur,27.32411858037578,77.21752077244258,105,2548462,4179,2143046,371286,1576,18,26106,288723,129697,479437,147520,132571,1104824,1524305,557305,54090,88.0,58.0,43.0
Rajasthan,Bhilwara,25.45119767759564,74.63947595628417,122,2408523,6207,2224839,142427,1978,60,24014,373644,145865,530015,92785,106667,1180456,1347909,407947,229273,97.0,52.0,49.0
Rajasthan,Bikaner,28.12489068322981,73.26943322981371,101,2363937,7607,2073356,235741,1901,79,29531,220793,196179,335754,80296,101714,1015331,1341957,493646,7779,91.0,54.0,43.0
Rajasthan,Bundi,25.48580716049379,75.79984074074079,121,1110906,1392,1017688,66609,682,24,7705,136969,63452,239836,41227,41052,553622,585809,210788,228549,92.0,53.0,50.0
Rajasthan,Chittaurgarh,24.631623761665463,74.80010997846382,126,1544338,4941,1413163,97855,1274,136,16560,268172,88873,366780,58129,67155,715545,868699,250224,201546,97.0,53.0,46.0
Rajasthan,Churu,28.29330375536484,74.65846427038629,102,2039547,2577,1777879,249736,958,127,15259,231696,148996,344897,100677,77282,910226,1228712,451721,11245,94.0,56.0,45.0
Rajasthan,Dausa,26.91234817629181,76.57342097264443,109,1634409,1719,1582335,45488,439,115,14539,195277,59610,361084,92559,90833,681980,1005436,354337,433344,91.0,57.0,42.0
Rajasthan,Dhaulpur,26.72397054945053,77.74476219780222,106,1206516,1330,1127520,72258,688,21,9504,96086,58626,214670,45590,37856,552106,682444,245695,58594,85.0,57.0,46.0
Rajasthan,Dungarpur,23.75104807692308,73.84765641025645,124,1388552,1477,1340065,28662,830,853,11742,141275,31547,322816,42887,39312,764563,675840,52267,983437,99.0,49.0,55.0
Rajasthan,Ganganagar,29.256785412667963,73.56192303262948,99,1969168,6295,1437144,50688,2077,164,24901,283142,164897,397697,105734,104071,710223,1181845,720412,13477,89.0,61.0,36.0
Rajasthan,Hanumangarh,29.1813351791531,74.74632573289902,100,1774692,3360,1433067,118673,1542,138,16217,243163,108694,389059,104087,84185,723454,1088552,494189,14289,91.0,58.0,41.0
Rajasthan,Jaipur,27.033459290187885,75.77117286012533,110,6626178,76565,5819980,687452,12708,257,182350,990085,977838,754841,455527,703673,2046038,4433665,1003302,527966,91.0,65.0,31.0
Rajasthan,Jaisalmer,26.86900838548185,71.18371877346682,114,669919,754,497045,168129,874,34,7416,43141,30830,159117,12759,10604,397649,267105,99134,42429,85.0,46.0,59.0
Rajasthan,Jalor,25.07578093797277,72.18647261724662,116,1828730,1585,1732852,78990,730,82,12794,161845,48202,419216,32366,25210,1033534,870570,357196,178719,95.0,45.0,57.0
Rajasthan,Jhalawar,24.24725541474657,76.11242891705065,129,1411129,1750,1299751,96164,842,42,9403,220428,63763,298624,46267,47985,696680,747822,243582,182229,95.0,52.0,49.0
Rajasthan,Jhunjhunun,28.13517401247401,75.52840893970894,103,2137045,4828,1905682,228178,1004,85,24178,297559,150357,500452,192240,158936,712584,1536668,360709,41629,95.0,64.0,33.0
Rajasthan,Jodhpur,26.678460838536967,73.00450847457628,113,3687165,19335,3224399,411558,6035,80,54808,408808,307442,584215,154789,177199,1591957,2036941,608024,118924,92.0,55.0,43.0
Rajasthan,Karauli,26.51901555555556,76.96081818181815,107,1458248,1059,1370977,81553,602,413,13045,132079,59308,305047,69443,67639,668926,840673,354465,324960,86.0,55.0,46.0
Rajasthan,Kota,25.175718080000014,76.18618928000001,127,1951014,12843,1661307,243993,5665,286,36297,339899,311735,203454,118710,167778,588142,1317870,405408,183816,91.0,67.0,30.0
Rajasthan,Nagaur,27.07862016048146,74.14215667001012,112,3307743,4449,2833443,454487,1912,276,35328,347344,166489,675712,147701,117444,1533137,1910801,699911,10418,95.0,53.0,46.0
Rajasthan,Pali,25.80490393541874,73.55285640766907,118,2037573,4043,1870543,143476,1345,52,19270,326793,139808,512909,71472,67021,983050,1216936,398096,144578,99.0,53.0,48.0
Rajasthan,Rajsamand,25.24894767441859,73.96570215946844,123,1156597,1989,1105676,33677,759,68,9222,193276,61054,304622,41063,34286,544517,674367,148168,160809,99.0,54.0,47.0
Rajasthan,Sawai Madhopur,26.251081180223288,76.4219283891548,108,1335551,1887,1165505,155681,945,42,14310,140947,71264,282057,57625,70870,586492,759711,278789,285848,90.0,56.0,44.0
Rajasthan,Sikar,27.64644058641976,75.29317422839503,111,2677333,5647,2342076,327583,1122,15,28382,339457,178274,527560,200430,181282,967497,1859871,418806,75349,95.0,62.0,36.0
Rajasthan,Sirohi,24.7976905263158,72.75309131578943,117,1036346,2146,996562,30479,1284,56,10297,134089,69639,238535,30724,27076,577092,497001,201863,292470,94.0,46.0,56.0
Rajasthan,Tonk,26.153935071707927,75.79192216427637,120,1421326,1908,1243527,153146,754,30,12482,158264,81755,298911,64431,67155,661902,816124,287903,178207,95.0,53.0,47.0
Rajasthan,Udaipur,24.44076752136749,73.84029839743584,130,3068420,14211,2869976,104307,7406,373,48517,357846,182769,665449,102085,142672,1528671,1535470,188525,1525289,96.0,52.0,50.0
Sikkim,East,27.29600352941175,88.74908392156858,93,1709346,80037,1410852,178807,15792,366,127465,352758,461132,1086,235187,246988,169693,1334283,281422,0,88.0,79.0,10.0
Tamil Nadu,Ariyalur,11.190514836795256,79.22249643916912,616,754894,1749,708397,7942,37403,42,8371,177502,30322,223955,53934,57524,233438,532701,176230,10722,101.0,64.0,31.0
Tamil Nadu,Chennai,13.058098905608748,80.28139151846806,603,4646732,217368,3751322,439270,358662,1759,355838,1096334,1314125,0,464207,905515,419065,3642032,779667,10061,99.0,81.0,9.0
Tamil Nadu,Coimbatore,10.871376995940452,77.07619012178621,632,3458045,63273,3044145,211035,190314,237,149920,896325,884957,284795,273098,440520,519919,2504188,535911,28342,100.0,76.0,15.0
Tamil Nadu,Cuddalore,11.57587300613498,79.63002365371497,617,2605914,15396,2391675,123749,83334,138,50938,598412,260780,497429,186394,227530,634041,1868837,763944,15702,99.0,70.0,24.0
Tamil Nadu,Dharmapuri,12.300141200000006,78.11509813333339,630,1506843,3651,1452956,38304,14089,87,18927,337972,91107,396819,103367,112592,512824,1011099,245392,63044,95.0,61.0,34.0
Tamil Nadu,Dindigul,10.377801390820574,77.78011279554937,612,2159775,9155,1879494,105012,169945,138,38677,500057,269724,443818,153100,163050,480681,1595029,452376,8064,100.0,69.0,22.0
Tamil Nadu,Erode,11.267012155963302,77.42034334862392,610,2251744,18604,2115455,76098,55899,157,58861,595211,432398,411286,155344,215514,608003,1510680,369483,21880,99.0,66.0,27.0
Tamil Nadu,Kancheepuram,12.496424756511884,80.08820360135913,604,3998252,100322,3537399,173785,256762,756,200738,961161,774705,438799,312208,526886,678374,2867809,948081,41210,99.0,75.0,17.0
Tamil Nadu,Kanniyakumari,8.183466300191206,77.32053064053538,629,1870374,15673,909872,78590,876299,10,52943,465692,493788,104253,226312,254107,210901,1625788,74249,7282,102.0,83.0,11.0
Tamil Nadu,Karur,10.79532776617955,78.08749686847604,613,1064493,4915,993666,53292,16483,79,17995,264949,152420,212241,77874,85595,276930,759410,221385,575,102.0,68.0,26.0
Tamil Nadu,Madurai,9.904313833333331,78.01366033333332,623,3038252,34097,2760502,168881,97711,305,95311,754141,592723,417718,250285,363152,449125,2398674,408976,11096,99.0,75.0,15.0
Tamil Nadu,Nagapattinam,10.789468161718286,79.79437299431483,618,1616450,5585,1435072,128617,47579,110,19692,381940,118724,399016,122350,125639,253572,1306690,509767,3756,103.0,75.0,16.0
Tamil Nadu,Namakkal,11.33766638477801,78.14624841437633,609,1726601,8960,1673652,32483,16909,199,31581,441044,257127,370357,126468,169206,388418,1200360,345392,57059,99.0,68.0,22.0
Tamil Nadu,Perambalur,11.260137758112096,78.86034011799416,615,565223,1507,521658,32702,10301,26,7745,135751,33179,155413,41447,44025,109011,443373,175289,2584,100.0,66.0,19.0
Tamil Nadu,Pudukkottai,10.130514816433578,79.05444484265728,621,1618345,4494,1428784,114194,72850,293,18272,354493,104229,399712,121706,111731,447346,1167183,284804,1283,101.0,69.0,28.0
Tamil Nadu,Ramanathapuram,9.31286995153476,78.99185362412462,626,1353445,5172,1047411,208038,91139,36,22379,291400,126761,290478,105978,97405,107292,1186606,249008,1105,98.0,72.0,8.0
Tamil Nadu,Salem,11.629324202127655,78.2478257978723,608,3482056,20660,3326357,95487,53841,246,63867,835377,597539,572813,242306,296399,955045,2335432,580512,119369,95.0,66.0,27.0
Tamil Nadu,Sivaganga,9.960306580645158,78.56535729032255,622,1339101,5773,1186078,74310,75481,24,24456,314270,143193,309224,103903,115894,311112,998410,227746,790,100.0,72.0,23.0
Tamil Nadu,Thanjavur,10.387692255892237,79.3194869107745,620,2405890,13495,2075870,190814,133971,148,42912,555582,274302,479070,178126,222410,461123,1812871,455062,3561,103.0,74.0,19.0
Tamil Nadu,Theni,9.924066666666668,77.43458833333332,624,1245899,4667,1148990,56751,37574,74,18830,312310,221295,189328,95231,101147,270738,891561,258200,1835,99.0,70.0,22.0
Tamil Nadu,Thiruvallur,13.275858101752885,80.19724702864492,602,3728104,75634,3325823,143093,233633,530,174279,909400,732196,387237,303091,451321,610048,2687680,821646,47243,99.0,75.0,16.0
Tamil Nadu,Thiruvarur,10.368927409395978,79.60322893959727,619,1264277,4416,1132785,96092,33192,64,15535,303114,86848,321331,103908,99082,175564,1067502,430927,3034,102.0,75.0,14.0
Tamil Nadu,Tiruvannamalai,12.419318947368414,79.23265631578953,606,2464875,6445,2294369,91636,66987,110,27529,549077,147061,563102,174560,158041,672427,1782712,565329,90954,99.0,66.0,27.0
Tamil Nadu,Vellore,12.784882632293078,79.02643283582084,605,3936331,20623,3397857,414760,111390,251,69912,865913,486801,653499,311434,308514,891430,2965827,860212,72955,101.0,70.0,23.0
Tamil Nadu,Virudhunagar,9.468872195892564,77.87641469194315,625,1942288,10219,1822626,47838,67405,75,37357,505950,370942,363782,138306,167506,403246,1450277,399831,2294,101.0,72.0,21.0
Tripura,Dhalai,23.781360477941163,91.94654283088232,291,378230,273,307120,8256,22940,206,5067,46875,14071,89457,9157,6425,109130,260948,61688,210608,94.0,73.0,29.0
Tripura,North Tripura,24.121739755351683,92.17842538226292,292,693947,997,507967,105737,44062,70,10310,81601,42184,150437,22720,18419,156840,559122,114968,179426,97.0,75.0,23.0
Tripura,South Tripura,23.211874098057383,91.6065807585568,290,876001,948,736015,49258,39258,808,10393,133744,44906,219171,31690,26870,188363,691125,140168,344835,96.0,74.0,22.0
Tripura,West Tripura,23.780166241299337,91.41310788863107,289,1725739,6394,1512801,152791,53622,430,36186,314567,217016,289621,88122,85405,279053,1464673,338094,431944,96.0,79.0,16.0
Uttar Pradesh,Agra,26.99512974910393,78.05278291517321,146,4418797,27183,3922718,411313,10076,384,82012,536402,406852,496971,317618,199395,963202,3141380,991325,7255,87.0,61.0,22.0
Uttar Pradesh,Aligarh,27.93748576850093,78.00146831119557,143,3673889,13634,2904140,729283,7635,91,58336,268120,275942,582117,216997,172585,1352181,2137251,755254,629,88.0,57.0,37.0
Uttar Pradesh,Allahabad,25.392038662316445,82.05172446982063,175,5954391,24122,5102041,796756,13782,305,85491,391542,265304,983266,502826,428871,1756098,4061896,1309851,7955,90.0,62.0,29.0
Uttar Pradesh,Ambedkar Nagar,26.39119025974028,82.68282142857147,178,2397888,2509,1985654,401678,2536,33,27308,99581,65031,501559,172872,194387,813502,1718855,591125,746,98.0,62.0,34.0
Uttar Pradesh,Auraiya,26.66892394014961,79.42637057356607,162,1379545,2404,1273546,101963,1004,444,14279,65479,58438,255836,101542,79012,276224,1063360,391622,150,86.0,67.0,20.0
Uttar Pradesh,Azamgarh,26.008290954773837,83.01220251256285,191,4613913,6652,3878626,718692,3810,226,47324,183381,80434,891024,312571,158303,1218146,4024458,1171378,9327,102.0,60.0,26.0
Uttar Pradesh,Baghpat,29.045793499999988,77.30266300000001,139,1303048,2989,917474,364583,1840,25,19999,119121,69991,246055,79475,44164,376700,887221,149060,14,86.0,61.0,29.0
Uttar Pradesh,Bahraich,27.691776300578027,81.46779783237004,180,3487731,2681,2291892,1169330,6400,38,35463,85814,61742,698520,65106,47690,1920966,1381933,509307,11159,89.0,40.0,55.0
Uttar Pradesh,Ballia,25.86075638297873,84.03651978723408,193,3239774,4672,3004240,213440,4463,64,42969,119972,64454,564927,323582,200434,1032533,2348254,494698,110114,94.0,61.0,32.0
Uttar Pradesh,Balrampur,27.449076537911324,82.47158326180256,182,2148665,1551,1333242,805975,3228,87,15510,57400,35768,410070,40633,37109,1332817,876131,277212,24887,93.0,40.0,62.0
Uttar Pradesh,Banda,25.351885902503284,80.52487391304344,170,1799410,1655,1637549,157612,1367,50,18612,73522,67569,378056,61702,63112,588025,1235531,387855,163,86.0,56.0,33.0
Uttar Pradesh,Bara Banki,26.922777025232424,81.35762350597606,176,3260699,3159,2505444,737106,4857,211,26293,108116,79068,635840,132332,113799,1540841,1760720,864559,610,91.0,52.0,47.0
Uttar Pradesh,Bareilly,28.51101940789474,79.43187072368416,150,4448359,15164,2830768,1536534,14822,339,56575,272830,362798,631613,172554,146446,1744527,2409592,557150,3227,89.0,49.0,39.0
Uttar Pradesh,Basti,26.833880454545447,82.69790590909092,185,2464464,3423,2082976,364510,3493,99,30244,108101,31065,513960,162961,143642,1021192,1674771,513959,3620,96.0,57.0,41.0
Uttar Pradesh,Bijnor,29.313974259681096,78.45098815489754,134,3682713,7303,2032081,1585210,6184,41,37341,268353,224648,683875,159528,148185,1308683,2453411,787444,3058,92.0,58.0,36.0
Uttar Pradesh,Bulandshahr,28.34875862068968,78.01082758620684,142,3499171,7865,2707195,777407,4088,86,38225,223922,221628,658449,217882,151182,1185318,2184539,725600,198,90.0,58.0,34.0
Uttar Pradesh,Chandauli,25.1180859611231,83.25307062634984,196,1952756,3492,1727869,215081,2153,1175,20762,99602,50822,344937,135962,88299,543247,1368472,446786,41725,92.0,60.0,28.0
Uttar Pradesh,Chitrakoot,25.159924623803,81.07666087551297,171,991730,827,955372,34559,693,27,9437,41046,23558,207237,40266,35826,383908,616227,266655,366,88.0,54.0,39.0
Uttar Pradesh,Deoria,26.42218856548857,83.8244070686071,190,3100946,4469,2730957,358539,3626,146,36068,150001,67928,597778,277548,194341,1130108,2392325,468663,109894,102.0,60.0,36.0
Uttar Pradesh,Etah,27.591155309734443,78.70021858407083,201,1774480,2635,1611126,146346,2464,18,19712,69591,67752,334246,119665,88607,718310,1048892,281011,140,87.0,59.0,40.0
Uttar Pradesh,Etawah,26.78817670157068,79.07621806282728,161,1581810,2964,1457892,113961,1362,94,21506,113098,85483,265643,121283,118571,397708,1211214,388283,169,87.0,67.0,25.0
Uttar Pradesh,Faizabad,26.60589185185181,82.00783530864202,177,2470996,4746,2094271,365806,3225,185,28625,127754,79288,510378,176303,179996,981915,1670696,555047,931,96.0,59.0,40.0
Uttar Pradesh,Farrukhabad,27.45063297872342,79.4406284574468,159,1885204,2624,1596278,276846,3137,100,18733,88081,94843,316647,115069,110391,710960,1277039,312712,230,87.0,58.0,38.0
Uttar Pradesh,Fatehpur,25.8374362030905,80.85416203090509,172,2632733,3385,2274674,350700,2201,47,33501,75263,77733,558807,134445,116445,895178,1738210,651480,340,90.0,57.0,34.0
Uttar Pradesh,Firozabad,27.20963993055552,78.42660624999998,147,2498156,5834,2140745,314812,3370,61,31797,196080,185621,349747,166249,108627,672115,1673077,473890,2565,88.0,61.0,27.0
Uttar Pradesh,Gautam Buddha Nagar,28.393311038961038,77.52462467532465,141,1648115,53181,1394025,215500,7366,91,87188,257586,338935,170835,194796,101645,342284,1335017,216105,2215,85.0,68.0,21.0
Uttar Pradesh,Ghaziabad,28.74997308584685,77.67441879350343,140,4681645,78116,3414427,1186776,19026,265,179552,695130,836316,355407,475439,255949,885070,3545813,773463,3968,88.0,67.0,19.0
Uttar Pradesh,Ghazipur,25.624724775583484,83.5360854578097,195,3620268,5309,3233790,368153,4181,184,50180,105767,61467,700173,334003,186306,1008996,2803884,726641,28712,95.0,61.0,28.0
Uttar Pradesh,Gonda,27.157215552099505,82.0226888024882,183,3433919,4313,2739076,678615,4735,57,31811,104084,52794,673578,144067,118176,1620782,1873028,531973,870,92.0,49.0,47.0
Uttar Pradesh,Gorakhpur,26.63315886792452,83.3549560377358,188,4440895,14597,4009037,403847,9662,207,65360,296619,189170,761958,316166,273903,1453960,3103910,936061,18172,95.0,61.0,33.0
Uttar Pradesh,Hamirpur,25.738158381502892,79.82619479768789,28,454768,2521,449412,3711,243,9,7525,104120,15232,196116,64363,35620,72551,376978,109256,3044,110.0,79.0,16.0
Uttar Pradesh,Hamirpur,25.738158381502892,79.82619479768789,168,1104285,1196,1010014,91269,814,273,11037,55929,55300,256081,59914,59612,364848,835920,241198,474,86.0,59.0,33.0
Uttar Pradesh,Hardoi,27.337409090909137,80.26411767676768,155,4092845,3845,3508131,556219,5822,98,32065,95508,121064,786613,138583,103523,1481604,2657604,1274505,349,87.0,54.0,36.0
Uttar Pradesh,Jalaun,26.067954587155988,79.36686911314993,165,1689974,2217,1509708,171581,1148,145,18615,104176,91565,304856,104699,106888,461666,1169557,468178,832,87.0,64.0,27.0
Uttar Pradesh,Jaunpur,25.70141280913127,82.54315351934063,194,4494204,8002,3981502,483750,4947,114,52398,181467,80582,926088,353996,256398,1344789,3531099,990345,4736,102.0,61.0,30.0
Uttar Pradesh,Jhansi,25.45581535234902,78.89954580536917,166,1998603,8517,1823930,147842,7050,311,40774,183340,195321,309592,99814,92586,483088,1287584,562505,3873,89.0,65.0,24.0
Uttar Pradesh,Jyotiba Phule Nagar,28.870498984771597,78.39009365482241,137,1840221,2825,1075440,750368,5952,21,18303,89329,115486,335888,164763,69522,520215,1233732,318001,164,91.0,53.0,28.0
Uttar Pradesh,Kannauj,26.993988617886185,79.64437940379408,160,1656616,2488,1375788,273967,1263,65,18082,61491,65985,299785,107628,95072,543034,1170752,309980,15,88.0,61.0,33.0
Uttar Pradesh,Kanpur Dehat,26.43047641196011,79.98710083056478,163,1796184,2682,1612968,176327,1300,103,25354,49753,41323,363933,157167,97740,475166,1406418,460544,801,86.0,65.0,26.0
Uttar Pradesh,Kaushambi,25.53587532051282,81.41811282051287,174,1599596,1503,1372381,220423,2225,3,15029,43753,30764,349856,89011,45341,670750,905188,555397,193,91.0,51.0,42.0
Uttar Pradesh,Kushinagar,26.892530675909864,83.92261542461007,189,3564544,3486,2928462,620244,5006,133,35931,127331,42775,742324,170911,119625,1550315,2180924,544231,80269,96.0,55.0,43.0
Uttar Pradesh,Lalitpur,24.58877161016945,78.60082330508473,167,1221592,1079,1163804,33724,1351,41,9906,77082,43819,258013,32237,34658,509536,674358,240519,71610,91.0,52.0,42.0
Uttar Pradesh,Lucknow,26.838233589251463,80.89706026871404,157,4589838,68506,3537787,985070,20493,504,152257,582769,717566,344155,378742,639260,1146880,3094625,948294,7506,92.0,68.0,25.0
Uttar Pradesh,Mahoba,25.34529670138888,79.67863003472216,169,875958,1316,815142,57454,965,157,11298,42936,48525,198298,33810,37165,403649,526669,220898,647,88.0,56.0,46.0
Uttar Pradesh,Mainpuri,27.17386862302482,79.03501851015807,148,1868529,2642,1746649,100723,1729,38,24451,79022,72783,338475,144516,111696,519493,1406443,368206,478,88.0,64.0,28.0
Uttar Pradesh,Mathura,27.59390432801821,77.62153416856502,145,2547184,8726,2310776,216933,3179,126,37596,281239,177802,407488,155937,103102,691359,1571793,506580,1520,86.0,59.0,27.0
Uttar Pradesh,Mau,26.01082203791469,83.50582654028433,192,2205968,2656,1769937,428555,2109,129,26716,149908,99321,352207,209493,150462,659237,1708560,474537,22915,98.0,62.0,30.0
Uttar Pradesh,Meerut,29.02957625698323,77.80611005586593,138,3443689,23717,2183255,1185643,10582,236,69473,425624,422303,381520,254337,275076,990312,2302997,624149,3390,89.0,62.0,29.0
Uttar Pradesh,Mirzapur,25.10207959183675,82.60126628571429,199,2496970,4447,2292534,195765,2373,27,24518,145997,77963,465152,177109,140668,868542,1691126,661129,20132,90.0,57.0,35.0
Uttar Pradesh,Moradabad,28.851770406189537,78.73580193423597,135,4772006,11690,2488265,2248392,13157,382,61846,281758,355518,692398,186311,186489,2097292,2545795,731406,685,91.0,47.0,44.0
Uttar Pradesh,Muzaffarnagar,29.470507977736563,77.64017847866423,133,4143512,10077,2382914,1711453,6495,60,56149,368153,296104,673746,148770,98691,1431537,2673586,561250,317,89.0,58.0,35.0
Uttar Pradesh,Pilibhit,28.52024175035868,79.90103974175037,151,2031007,2870,1449007,489686,3510,45,18097,83006,89638,371752,77602,66129,977839,1086632,333558,1714,89.0,52.0,48.0
Uttar Pradesh,Pratapgarh,25.864842731707316,81.93530048780492,131,867848,716,827293,25597,358,27,5961,71612,24269,209813,21854,19109,488621,402948,60429,550427,98.0,46.0,56.0
Uttar Pradesh,Pratapgarh,25.864842731707316,81.93530048780492,173,3209141,5149,2731351,452394,3920,43,34400,140538,41701,711085,238011,197846,1059636,2231374,709252,723,100.0,60.0,33.0
Uttar Pradesh,Rae Bareli,26.253902840059787,81.22260463378181,158,3405559,5184,2975998,413243,3634,602,34788,247856,73393,705025,182823,153041,1286726,2178952,1030367,1756,94.0,58.0,38.0
Uttar Pradesh,Rampur,28.83244727272725,79.10977333333337,136,2335819,3847,1073890,1181337,9201,63,25960,131112,143217,396775,51703,43839,1235413,1008445,307936,358,91.0,45.0,53.0
Uttar Pradesh,Saharanpur,30.03381165217392,77.59905147826095,132,3466382,9699,1966892,1454052,6523,135,38816,404499,284156,605082,163463,154153,1279517,2090428,764450,980,89.0,60.0,37.0
Uttar Pradesh,Sant Kabir Nagar,26.791596516393444,83.0387764344262,186,1715183,2031,1300586,404410,1766,35,19729,79525,27179,324972,86528,63506,683053,1126522,369039,1593,97.0,56.0,40.0
Uttar Pradesh,Shahjahanpur,27.991389350649328,79.8302275324675,152,3006538,3889,2412595,527581,4630,84,27533,115163,134714,520289,96308,87355,1324615,1594486,532673,508,87.0,50.0,44.0
Uttar Pradesh,Sitapur,27.501995963091108,80.85288881199547,154,4483992,3874,3555450,893725,6579,79,34609,102040,111319,827583,136383,127750,2141696,2347731,1446427,1602,89.0,51.0,48.0
Uttar Pradesh,Sonbhadra,24.46693268858798,83.06816324951639,200,1862559,5149,1738769,103567,3963,1907,25220,95582,91040,337048,82614,63846,745126,1092648,421661,385018,92.0,53.0,40.0
Uttar Pradesh,Sultanpur,26.2846386419753,82.05710456790123,179,3797117,5956,3119590,650261,4453,336,44008,233701,49891,839737,188848,176414,1118891,2310783,851587,696,98.0,59.0,29.0
Uttar Pradesh,Unnao,26.63163990895297,80.636773292868,156,3108367,3476,2732016,363453,3574,31,28719,99466,121039,596317,136688,101934,1130103,1915619,948588,2926,91.0,57.0,36.0
Uttar Pradesh,Varanasi,25.36057088888889,82.82529666666672,197,3676841,19214,3107681,546987,7696,298,57583,336056,316129,438935,351391,281652,906367,2748818,486958,28617,91.0,65.0,25.0
Uttaranchal,Almora,29.683532133676103,79.50165064267351,64,622506,1830,611250,7752,1895,6,9858,109876,21082,260056,53026,37742,109556,495882,150995,1281,114.0,70.0,18.0
Uttaranchal,Bageshwar,29.98703393393397,79.83954354354357,63,259898,435,257509,1440,397,16,3595,47083,3880,96031,20785,10900,49539,199825,72061,1982,109.0,69.0,19.0
Uttaranchal,Chamoli,30.58338611464965,79.56281095541402,57,391605,899,385818,4395,428,23,5582,71524,22906,163434,32557,27168,61950,293196,79317,12260,102.0,72.0,16.0
Uttaranchal,Champawat,29.29142393939393,80.07720212121217,65,259648,548,249563,8693,870,6,3159,37725,12839,85202,18360,15110,62429,188383,47383,1339,98.0,68.0,24.0
Uttaranchal,Pithoragarh,30.14720631868129,80.34229230769236,62,483439,1344,475105,6015,1401,30,7932,95421,26256,183687,42086,28375,88036,371448,120378,19535,102.0,71.0,18.0
Uttaranchal,Tehri Garhwal,30.463700918635173,78.48783792650917,59,618931,1366,609835,7374,656,109,7831,117239,27177,227059,58434,30704,133013,436261,102130,875,108.0,66.0,21.0
Uttaranchal,Udham Singh Nagar,29.02779577677222,79.45629004524895,67,1648902,7883,1104452,372267,6064,159,28053,254802,145253,269406,113661,111062,438598,1120419,238264,123037,92.0,63.0,27.0
Uttaranchal,Uttarkashi,30.968958552036234,78.56880615384617,56,330086,602,324859,3554,353,105,4104,52621,9061,112148,24989,18882,83896,213460,80567,3512,96.0,65.0,25.0
West Bengal,Bankura,23.081280892857155,87.12640053571437,339,3596674,4273,3033581,290450,3865,260694,34128,334670,90885,900515,143882,133465,1417787,2241357,1174447,368690,96.0,62.0,39.0
West Bengal,Barddhaman,23.444453888888884,87.8150581111111,335,7717563,32323,6008472,1599764,21220,44968,141387,1049943,862368,1364868,405935,439823,2196886,5449930,2115719,489447,95.0,68.0,28.0
West Bengal,Birbhum,24.06389342723,87.65153089201888,334,3502404,5210,2181515,1298054,10906,6051,39636,333752,134565,831044,122865,115743,1346802,2200345,1033140,242484,96.0,62.0,38.0
West Bengal,Dakshin Dinajpur,25.342094363021435,88.69821679819614,331,1676276,2518,1232850,412788,24794,2786,24318,168069,70077,390949,63286,52345,534394,1155081,482754,275366,96.0,65.0,32.0
West Bengal,Darjiling,26.839619571045585,88.33145067024122,327,1846823,10943,1366681,105086,141848,15523,38065,297176,215675,303284,113905,110193,415353,1343837,317275,397389,97.0,71.0,22.0
West Bengal,Haora,22.401674174428507,87.99421176968654,341,4850029,30751,3535844,1270641,8666,1265,99261,796953,869313,483384,284481,304594,926661,3733165,718951,15094,94.0,74.0,19.0
West Bengal,Hugli,22.87929264705881,88.00010264705891,338,5519145,31725,4574569,870204,7300,49050,118459,965258,647953,992085,333658,380060,1180806,4297751,1344021,229243,96.0,74.0,21.0
West Bengal,Jalpaiguri,26.62642031250004,89.04154375000003,328,3872846,9322,3156781,445817,186279,23816,48818,382500,319426,798378,150360,129393,1203423,2626587,1458278,731704,95.0,65.0,31.0
West Bengal,Kolkata,22.550581481481483,88.3527648148148,342,4496694,136618,3440290,926414,39758,1452,252644,927602,1308106,0,425245,691804,410988,3436193,241932,10684,91.0,80.0,9.0
West Bengal,Maldah,25.08026802575105,88.17191684549356,332,3988845,5357,1914352,2045151,13209,7929,63525,297716,128678,830318,109719,92207,1960034,2161924,835430,313984,94.0,52.0,49.0
West Bengal,Murshidabad,24.25950655391121,88.16816860465121,333,7103807,7951,2359061,4707573,18102,7429,79729,541169,350899,1501066,230242,170051,3031841,4346870,897534,91035,96.0,57.0,43.0
West Bengal,Nadia,23.56410971055088,88.58293034547152,336,5167600,12787,3728482,1382682,33835,16893,77210,623729,468390,1081381,236828,209562,1570127,3635454,1546917,140700,95.0,67.0,30.0
West Bengal,Puruliya,23.254192328767108,86.3968532876713,340,2930115,3551,2373120,227249,8646,309029,32862,189889,99433,653219,91807,77621,1272799,1664428,567767,540652,96.0,55.0,43.0
West Bengal,Uttar Dinajpur,26.044619165196977,88.23595232216337,330,3007134,2883,1482943,1501170,16702,1622,31210,199307,94269,683981,73395,59457,1431264,1622095,807950,162816,94.0,50.0,48.0
